koryakov_db_id,eng_vil_name,rus_vil_name,lang_1_K,lang_2_K,lang_1_S,lang_2_S,same_languages,name_1885,name_1895,name_1926,name_2010,census_1885,census_1895,census_1926,census_2010,Lat,Lon,Republic,Region,elevation,LevK_comments,kutans
481,NA,? Бехвалутчи/Бехахутли,Tindi,NA,NA,NA,NA,NA,NA,Бехоркучи,Бехвалутчи,NA,NA,45,26,NA,NA,NA,NA,NA,NA,NA
3887,NA,(база отдыха),Kumyk,NA,NA,NA,NA,NA,NA,Сулак № 2,NA,NA,NA,15,NA,NA,NA,NA,NA,NA,NA,NA
3943,NA,(Старый) Гапцах,Lezgian,NA,NA,NA,NA,Гапца (Гепце),"Гапца (Гепце, Хабца, Хапцагар)",Гопцах,NA,939,883,1034,NA,NA,NA,NA,NA,NA,NA,NA
3327,NA,(старый) Хорель,Lezgian,NA,NA,NA,NA,Хорал (Хюраль),Хораль (Хюраль),Хорель,NA,417,422,547,NA,NA,NA,NA,NA,NA,NA,NA
3915,NA,5-й Караман,Russian,NA,NA,NA,NA,NA,NA,Караман № 1,NA,NA,NA,109,NA,NA,NA,NA,NA,NA,NA,NA
375,NA,№ 1,Botlikh,NA,NA,NA,NA,NA,NA,№ 1,NA,NA,NA,6,NA,NA,NA,NA,NA,NA,NA,NA
377,NA,№ 2,Botlikh,NA,NA,NA,NA,NA,NA,№ 2,NA,NA,NA,8,NA,NA,NA,NA,NA,NA,NA,NA
1047,NA,Абдуразда,Avar,NA,NA,NA,NA,NA,NA,Абдуразда,NA,NA,NA,10,NA,NA,NA,NA,NA,NA,NA,NA
1291,NA,Абидуны Махи,Dargwa,сев.,NA,NA,NA,NA,NA,Абидуны Махи,NA,NA,NA,86,NA,NA,NA,NA,NA,NA,NA,NA
1949,Avadan,Авадан,North Azerbaijani,NA,Lezgian,NA,FALSE,Араблир,Арабляр,Арабляр,Авадан,149,145,76,2855,41.93376,48.33858,Daghestan,NA,6.30205154418945,NA,not_kutan
1485,NA,Авулт,Dargwa,сев.,NA,NA,NA,NA,NA,Авулт,NA,NA,NA,12,NA,NA,NA,NA,NA,NA,NA,NA
1051,Agada,Агада,Avar,NA,Avar,NA,TRUE,NA,NA,Ахада,Агада,NA,NA,35,45,42.412001,46.841895,Daghestan,NA,1210.09204101563,NA,not_kutan
3657,Agachaul,Агачаул,Kumyk,NA,Kumyk,NA,TRUE,Агач-аул,Агач-аул,Агач-Аул,Агачаул,469,305,534,1811,42.92306,47.46064,Daghestan,NA,250.854614257812,NA,not_kutan
855,Agachkala,Агачкала,Kumyk,NA,Kumyk,NA,TRUE,Агач-Кала,NA,Агач-Кала,Агачкала,24,NA,90,447,42.76698,47.07599,Daghestan,NA,686.41064453125,NA,not_kutan
215,Agvali,Агвали,Chamalal,NA,Chamalal,NA,TRUE,Ашали,Агвали (Агуали),Агвали,Агвали,181,183,213,2453,42.541192,46.121798,Daghestan,NA,962.579956054688,?,not_kutan
215,NA,Агвали,Chamalal,NA,NA,NA,NA,Ашали,Агвали (Агуали),Агвали,Агвали,181,183,213,2453,NA,NA,NA,NA,NA,?,NA
287,Agvali,Агвали,Chamalal,NA,Chamalal,NA,TRUE,NA,NA,Агвали,NA,NA,NA,72,NA,42.541192,46.121798,Daghestan,NA,962.579956054688,?,not_kutan
287,NA,Агвали,Chamalal,NA,NA,NA,NA,NA,NA,Агвали,NA,NA,NA,72,NA,NA,NA,NA,NA,NA,?,NA
2055,Aglobi,Аглоби,тат+,NA,Lezgian,NA,FALSE,Аглаби (Агляби),"Аглаби (Агляби, Оглак)",Аглаби,Аглоби,139,145,165,2343,41.90152,48.35017,Daghestan,NA,17.4916496276856,NA,not_kutan
2359,Adaga,Адага,Dargwa,кайт.,Dargwa,NA,TRUE,Адага (Адагай),Адага (Адагай),Адага,Адага,428,418,432,162,42.00972,47.71357,Daghestan,NA,1109.09155273438,NA,not_kutan
669,Adanak,Аданак,Kumyk,NA,Kumyk,NA,TRUE,NA,NA,Аданак,Аданак,NA,NA,19,1464,42.7522,47.4586,Daghestan,NA,297.048889160156,NA,not_kutan
679,NA,Аданак-Котан,Kumyk,NA,NA,NA,NA,NA,NA,Аданак-Котан,NA,NA,NA,14,NA,NA,NA,NA,NA,NA,NA,NA
3665,Adzhidada,Аджидада,Kumyk,NA,Avar,NA,FALSE,NA,NA,Аджидада,Аджидада,NA,NA,147,1645,43.2861,47.0731,Daghestan,NA,-10.7896680831909,NA,kutan
1539,Adukmakhi,Адукмахи,Dargwa,сев.,Dargwa,NA,TRUE,NA,NA,Адук-Махи,Адукмахи,NA,NA,21,0,42.39928,47.401891,Daghestan,NA,1446.87512207031,NA,not_kutan
3209,Azadogly,Азадоглы,Lezgian,NA,Lezgian,NA,TRUE,Азат-оглы,Азад-оглы (Азадуглы),Азад-Оглы,Азадоглы,36,42,295,1695,41.83019,48.448480000000004,Daghestan,NA,37.29150390625,NA,not_kutan
227,NA,Азалала,Andi,верхне-андийски,NA,NA,NA,NA,NA,Азалала,NA,NA,NA,6,NA,NA,NA,NA,NA,NA,NA,NA
4739,Azilta,Азильта,Tsez,цезский,Tsez,NA,TRUE,Азильта,Азильта (Азцло),Азильта,Азильта,79,86,21,246,42.260166,45.938182,Daghestan,NA,1986.77307128906,NA,not_kutan
727,NA,Айламабут,Kumyk,NA,NA,NA,NA,NA,NA,Айламабут,NA,NA,NA,6,NA,NA,NA,NA,NA,NA,NA,NA
9034,NA,Айлигуб-Махи,Dargwa,цуд.,NA,NA,NA,NA,Айлигуб-Махи,NA,NA,NA,39,NA,NA,NA,NA,NA,NA,NA,NA,NA
657,Aymaki,Аймаки,Avar,NA,Avar,NA,TRUE,Аймаки,Аймаки (Аймеки),Аймаки,Аймаки,663,748,884,2342,42.5342,47.1383,Daghestan,NA,1282.49133300781,NA,not_kutan
1833,Aymaumakhi,Аймаумахи,Dargwa,сев.,Dargwa,NA,TRUE,NA,Аймаула,Аймац-Махи,Аймаумахи,NA,190,356,255,42.363756,47.575203,Daghestan,NA,1175.51672363281,NA,not_kutan
1391,NA,Айнего-Махи,Dargwa,цуд.,NA,NA,NA,NA,NA,Айнего-Махи,NA,NA,NA,22,NA,NA,NA,NA,NA,NA,NA,NA
1739,Aynikab,Айникаб,Dargwa,цуд.,Dargwa,NA,TRUE,Айлакав-Махи,Айлакаб-Махи,Айла-Кав,Айникаб,162,195,73,103,42.369307,47.216093,Daghestan,NA,1565.57507324219,NA,not_kutan
1293,Aynikabmakhi,Айникабмахи,Dargwa,сев.,Dargwa,NA,TRUE,Айникаб,Айникаб-Махи,Айни Каб,Айникабмахи,327,373,146,380,42.26679,47.36264,Daghestan,NA,1481.97375488281,NA,not_kutan
1599,Aynurbimakhi,Айнурбимахи,Dargwa,сев.,Dargwa,NA,TRUE,NA,Айнурби,Айнурви-Махи,Айнурбимахи,NA,321,390,287,42.29623,47.58462,Daghestan,NA,1204.91027832031,NA,not_kutan
1541,Aysalakak,Айсалакак,Dargwa,сев.,Dargwa,NA,TRUE,NA,Айсалакак,Айсала-Как,Айсалакак,NA,45,81,21,42.374896,47.474825,Daghestan,NA,1476.25439453125,NA,not_kutan
8017,Aytkhan,Айтхан,NA,NA,Andi,NA,NA,NA,NA,NA,Айтхан,NA,NA,NA,379,43.69773,46.82498,Daghestan,NA,-8.53425312042236,NA,kutan
879,Akaytala,Акайтала,Avar,NA,Avar,NA,TRUE,NA,NA,Акайтала,Акайтала,NA,NA,197,688,43.03176,46.92583,Daghestan,NA,475.864715576172,NA,not_kutan
1803,NA,Акаль-Махи,Lak,NA,NA,NA,NA,NA,NA,Акаль-Махи,NA,NA,NA,5,NA,NA,NA,NA,NA,NA,NA,NA
3897,Akaro (Yazykovka),Акаро,Chechen,NA,Avar,NA,FALSE,NA,NA,Эзиков,Акаро,NA,NA,90,173,43.352007,46.977198,Daghestan,NA,-7.03167057037354,NA,kutan
1717,NA,Акасса,Dargwa,сирхинско-тантынский,NA,NA,NA,NA,NA,Акасса,NA,NA,NA,5,NA,NA,NA,NA,NA,NA,NA,NA
4677,Akdy,Акды,Tsez,цезский,Tsez,NA,TRUE,Акиди,Акиды (Акты),Акти,Акды,65,64,47,53,42.25829,45.82798,Daghestan,NA,2121.26440429688,NA,not_kutan
2295,Akka,Акка,Tabasaran,NA,Tabasaran,NA,TRUE,Агка (Ака),"Агка (Ака, Ахчка, Аква)",Акка,Акка,122,124,134,599,41.92686,47.9297,Daghestan,NA,741.257202148438,NA,not_kutan
2295,Akka,Акка,Tabasaran,NA,Chechen,NA,FALSE,Агка (Ака),"Агка (Ака, Ахчка, Аква)",Акка,Акка,122,124,134,599,42.856944,45.240278000000004,Chechnya,NA,1772.53979492188,NA,not_kutan
217,NA,Акнада,Tindi,NA,NA,NA,NA,Акнада,"Акнода (Аканада, Ашанажи)",Акнода,Акнада,502,503,519,120,NA,NA,NA,NA,NA,Кизилюртовский район,NA
217,Aknada,Акнада,Tindi,NA,Tindi,NA,TRUE,Акнада,"Акнода (Аканада, Ашанажи)",Акнода,Акнада,502,503,519,120,42.4024828,46.1693204,Daghestan,NA,1756.12231445313,Цумадинский район,not_kutan
8101,NA,Акнада,NA,NA,NA,NA,NA,NA,NA,NA,Акнада,NA,NA,NA,4010,NA,NA,NA,NA,NA,Кизилюртовский район,NA
8101,Aknada,Акнада,NA,NA,Tindi,NA,NA,NA,NA,NA,Акнада,NA,NA,NA,4010,42.4024828,46.1693204,Daghestan,NA,1756.12231445313,Цумадинский район,not_kutan
1287,Akusha,Акуша,Dargwa,сев.,Dargwa,NA,TRUE,Акуша,Акуша,Акуши,Акуша,1988,2349,2512,4700,42.275664,47.340107,Daghestan,NA,1391.779296875,NA,not_kutan
1287,Akusha,Акуша,Dargwa,сев.,Dargwa,NA,TRUE,Акуша,Панжук,Акуши,Акуша,1988,953,2512,4700,42.275664,47.340107,Daghestan,NA,1391.779296875,NA,not_kutan
1033,Akushali,Акушали,Avar,NA,Avar,NA,TRUE,NA,NA,Акушали,Акушали,NA,NA,85,51,42.4992,46.9504,Daghestan,NA,1617.04846191406,NA,not_kutan
219,Alak,Алак,Avar,NA,Avar,NA,TRUE,Алак,Алакъ (Алади),Алак,Алак,665,654,779,2759,42.6092,46.1972,Daghestan,NA,1810.92053222656,NA,not_kutan
747,NA,Алитала,Kumyk,NA,NA,NA,NA,NA,NA,Алитала,NA,NA,NA,5,NA,NA,NA,NA,NA,NA,NA,NA
1385,Alikhanmakhi,Алиханмахи,Dargwa,цуд.,Dargwa,NA,TRUE,Али-Хан-Махи,Алихан-Махи,Алихан-Махи,Алиханмахи,405,395,340,831,42.33194,47.26602,Daghestan,NA,1555.15637207031,NA,not_kutan
3031,Alkadar,Алкадар,Lezgian,NA,Lezgian,NA,TRUE,Алкодар (Аулкодар),Алкадар (Аулкодар),Алкадар,Алкадар,397,368,324,970,41.7163,48.08667,Daghestan,NA,631.227966308594,NA,not_kutan
3363,NA,Алкадар-Казмаляр,Lezgian,NA,NA,NA,NA,NA,NA,Алкадар-Казмаляр,NA,NA,NA,14,NA,NA,NA,NA,NA,NA,NA,NA
3245,NA,Алла-Кавах,Lezgian,NA,NA,NA,NA,NA,NA,Алла-Кавах,NA,NA,NA,118,NA,NA,NA,NA,NA,NA,NA,NA
1691,Allate,Аллате,Dargwa,цуд.,Dargwa,NA,TRUE,NA,Алалти-Махи,Аллате,Аллате,NA,455,551,713,42.369057,47.184036,Daghestan,NA,1388.552734375,NA,not_kutan
3827,Almalo,Алмало,Russian,NA,Avar,NA,FALSE,NA,NA,Алмоло,Алмало,NA,NA,24,1620,43.0967,47.2253,Daghestan,NA,10.9668636322022,NA,not_kutan
2101,NA,Алхаджакент,Kumyk,NA,NA,NA,NA,Алхаджа-кент,Алходжа-Кент (Алха-Кент),Ахлоджакент,Алхаджакент,2034,2039,1314,2411,NA,NA,NA,NA,NA,NA,NA
923,NA,Алчуниб,Archi,верхне-андийски,NA,NA,NA,NA,NA,Алчуни,Алчуниб,NA,NA,189,193,NA,NA,NA,NA,NA,NA,NA
3667,NA,Альбурикент,Kumyk,NA,NA,NA,NA,Альбору-кент,"Альбору-Кент (Альборю-кент, А.-гент, Альбори-кент)",Альбурикент,Альбурикент,429,503,413,12417,NA,NA,NA,NA,NA,NA,NA
1497,Amalte,Амалте,Dargwa,цуд.,Dargwa,NA,TRUE,Аммалты-Махи,Аммалти-Махи,Амалты-Махи,Амалте,153,197,166,272,42.42457,47.11047,Daghestan,NA,1111.91564941406,NA,not_kutan
265,NA,Аманы,Botlikh,NA,NA,NA,NA,NA,NA,Аманы,NA,NA,NA,41,NA,NA,NA,NA,NA,NA,NA,NA
1389,Ameterkmakhi,Аметеркмахи,Dargwa,цуд.,Dargwa,NA,TRUE,Аметерк-Махи,"Аматерк-Махи (Амед-Терк-Махи, Улхулахар)",Аметерк-Махи,Аметеркмахи,725,721,441,2139,42.33081,47.213539,Daghestan,NA,1137.05822753906,NA,not_kutan
1509,NA,Амир-Али,Avar,NA,NA,NA,NA,NA,NA,Амир-Али,NA,NA,NA,3,NA,NA,NA,NA,NA,NA,NA,NA
1049,NA,Амир-Харик,Avar,NA,NA,NA,NA,NA,NA,Амир-Харик,NA,NA,NA,36,NA,NA,NA,NA,NA,NA,NA,NA
901,NA,Амирала,Avar,NA,NA,NA,NA,NA,NA,Амирала,NA,NA,NA,35,NA,NA,NA,NA,NA,NA,NA,NA
195,NA,Амитль,Avar,NA,NA,NA,NA,NA,NA,Амитль,NA,NA,NA,71,NA,NA,NA,NA,NA,NA,NA,NA
15,Amishta,Амишта,Avar,NA,Avar,NA,TRUE,Амишта (Гамишта),Амишта (Гамишта),Амишта,Амишта,122,141,135,129,42.62967,46.552971,Daghestan,NA,1484.29345703125,NA,not_kutan
1777,NA,Амма-Лухи-Махи,Dargwa,цуд.,NA,NA,NA,NA,NA,Амма-Лухи-Махи,NA,NA,NA,21,NA,NA,NA,NA,NA,NA,NA,NA
3925,NA,Амсар,Rutul,NA,NA,NA,NA,Амсар (Амсур),Амсар (Амсур),Амсар,Амсар,341,347,309,461,NA,NA,NA,NA,NA,NA,NA
2353,NA,Амузги,Dargwa,амузг.-шир.,NA,NA,NA,Амузгя (?),"Амузия (Амызга, Амузга)",Амугзия,Амузги,210,212,201,0,NA,NA,NA,NA,NA,NA,NA
3455,NA,Амух,Dargwa,амухский,NA,NA,NA,Амух (Амоки),Амух (Амоки),Амух,Амух,327,350,304,118,NA,NA,NA,NA,NA,NA,NA
21,Amushi Bol'shoe,Амущи Большое,Avar,NA,Avar,NA,TRUE,Амуши-большие (Бакта-Гамуши),Амуши Большие (Бакта Амуши),Амуши больш.,Амущи Большое,581,550,551,1510,42.63752,46.4864,Daghestan,NA,1033.43017578125,NA,not_kutan
23,Amushi Maloe,Амущи Малое,Avar,NA,Avar,NA,TRUE,Амуши малые  (Хунда-Амуши),Амуши Малые (Хунда Амуши),Амуши малый,Амущи Малое,159,137,187,126,42.650445,46.487815,Daghestan,NA,825.459167480469,NA,not_kutan
4187,Anada,Анада,Avar,NA,Avar,NA,TRUE,Аада,Аада (Агада),Апада,Анада,59,0,38,50,42.17306,46.36917,Daghestan,NA,1882.53393554688,NA,not_kutan
221,Angida,Ангида,Tindi,NA,Tindi,NA,TRUE,Ангида,Ангида,Ангида,Ангида,471,426,517,7,42.43279,46.1924,Daghestan,NA,1881.74572753906,NA,not_kutan
8013,Andi,Анди,NA,NA,Andi,NA,NA,NA,NA,NA,Анди,NA,NA,NA,5590,42.7856,46.2639,Daghestan,NA,1585.87963867188,NA,not_kutan
8059,NA,Андреевка,NA,NA,NA,NA,NA,NA,NA,NA,Андреевка,NA,NA,NA,329,NA,NA,NA,NA,NA,NA,NA
8006,Anduz,Андуз,NA,NA,Karata,NA,NA,NA,NA,NA,Андуз,NA,NA,NA,154,43.52361,46.87639,Daghestan,NA,-8,NA,kutan
225,NA,Анды,Andi,верхне-андийски,NA,NA,NA,Анди,Анди (Куанналъ),Анды,NA,2787,1703,2261,NA,NA,NA,NA,NA,NA,NA,NA
25,Andykh,Андых,Avar,NA,Avar,NA,TRUE,Андик (Хандик),Андых (Андикъ),Андых,Андых,557,595,602,971,42.5119,46.5939,Daghestan,NA,1528.25048828125,NA,not_kutan
473,NA,Анисучи,Tindi,NA,NA,NA,NA,NA,NA,Анисучи,NA,NA,NA,8,NA,NA,NA,NA,NA,NA,NA,NA
3457,Anklukh,Анклух,Dargwa,амухский,Dargwa,NA,TRUE,Анклуг (Анклёги),"Анклуг (Анклух, Анклеги, Анклюглу)",Анклух,Анклух,189,177,195,13,41.91667,47.53333,Daghestan,NA,1976.40209960938,NA,not_kutan
249,Ansalta,Ансалта,Avar,NA,Avar,NA,TRUE,Аисалта,"Ансалты (Ансалта, Ансалъ)",Ансальта,Ансалта,1265,1381,1373,4598,42.6939,46.1147,Daghestan,NA,1103.71447753906,NA,not_kutan
2235,NA,Антиль,Dargwa,кайт.,NA,NA,NA,Антиль,Антиль,Антиль,NA,133,132,139,NA,NA,NA,NA,NA,NA,NA,NA
8022,Ankhvala,Анхвала,NA,NA,Avar,NA,NA,NA,NA,NA,Анхвала,NA,NA,NA,309,43.65583,46.90389,Daghestan,NA,-12,NA,kutan
475,NA,Анхи,Tindi,NA,NA,NA,NA,NA,NA,Анхи,NA,NA,NA,29,NA,NA,NA,NA,NA,NA,NA,NA
469,NA,Анхо,Avar,NA,NA,NA,NA,NA,NA,Анхо,NA,NA,NA,30,NA,NA,NA,NA,NA,NA,?,NA
469,NA,Анхо,Avar,NA,NA,NA,NA,NA,NA,Анхо,NA,NA,NA,30,NA,NA,NA,NA,NA,NA,?,NA
567,NA,Анхо,Andi,верхне-андийски,NA,NA,NA,NA,NA,Анхо,Анхо,NA,NA,28,37,NA,NA,NA,NA,NA,?,NA
567,NA,Анхо,Andi,верхне-андийски,NA,NA,NA,NA,NA,Анхо,Анхо,NA,NA,28,37,NA,NA,NA,NA,NA,?,NA
253,Anchik (Anchikh),Анчик,Karata,карат.,Karata,NA,TRUE,Анчик  (Анчиди),Анчикъ (Анчиди),Анчик,Анчик,571,664,813,817,42.608098,46.271717,Daghestan,NA,1196.12072753906,NA,not_kutan
873,Apshi,Апши,Kumyk,NA,Avar,NA,FALSE,Анши (Ганши),"Апши (Абши, Г-)",Хапши,Апши,1487,1431,1832,1655,42.6094,47.1742,Daghestan,NA,1209.52526855469,NA,not_kutan
2065,NA,Араблинский 1005 вер.,Russian,NA,NA,NA,NA,NA,NA,Араблинский 1005 вер.,NA,NA,NA,8,NA,NA,NA,NA,NA,NA,NA,NA
2067,NA,Араблинский 1007 вер.,Russian,NA,NA,NA,NA,NA,NA,Араблинский 1007 вер.,NA,NA,NA,9,NA,NA,NA,NA,NA,NA,NA,NA
2061,NA,Араблинский 1015 вер.,Russian,NA,NA,NA,NA,NA,NA,Араблинский 1015 вер.,NA,NA,NA,4,NA,NA,NA,NA,NA,NA,NA,NA
2063,NA,Араблинский 1017 вер.,North Azerbaijani,NA,NA,NA,NA,NA,NA,Араблинский 1017 вер.,NA,NA,NA,5,NA,NA,NA,NA,NA,NA,NA,NA
2057,NA,Араблинское,Russian,NA,NA,NA,NA,NA,NA,Араблинский,NA,NA,NA,19,NA,NA,NA,NA,NA,NA,NA,NA
2057,NA,Араблинское,Russian,NA,NA,NA,NA,NA,NA,Араблинский,NA,NA,NA,19,NA,NA,NA,NA,NA,NA,NA,NA
2059,NA,Араблинское,Lak,NA,NA,NA,NA,NA,NA,Араблинский,Араблинское,NA,NA,12,2175,NA,NA,NA,NA,NA,NA,NA
2059,NA,Араблинское,Lak,NA,NA,NA,NA,NA,NA,Араблинский,Араблинское,NA,NA,12,2175,NA,NA,NA,NA,NA,NA,NA
3117,NA,Араг-Казмаляр,Lezgian,NA,NA,NA,NA,NA,NA,Араг-Казмаляр,NA,NA,NA,70,NA,NA,NA,NA,NA,NA,NA,NA
2105,Arak,Арак,Tabasaran,NA,Tabasaran,NA,TRUE,Арак,Арак,Арак,Арак,318,322,315,462,41.96112,47.98984,Daghestan,NA,726.893981933594,NA,not_kutan
27,Arakani,Аракани,Avar,NA,Avar,NA,TRUE,Араканы (Харакуни),Араканы (Харакуни),Араканы,Аракани,1050,1190,882,1638,42.610078,46.991711,Daghestan,NA,858.093566894531,NA,not_kutan
3929,Arakul,Аракул,Lak,NA,Lak,NA,TRUE,Арахкул (Деккюль),"Аракуль (Арахкуль, Деккюль)",Аракул,Аракул,532,554,481,423,41.77377,47.21238,Daghestan,NA,2117.37841796875,NA,not_kutan
3723,NA,Арала,Dargwa,сев.,NA,NA,NA,NA,NA,Арала,NA,NA,NA,6,NA,NA,NA,NA,NA,NA,NA,NA
1631,Arassamakhi,Арассамахи,Dargwa,сирхинско-тантынский,Dargwa,NA,TRUE,Араса-Махи,Араса-Махи,Араса-Махи,Арассамахи,57,31,49,30,42.0579,47.40111,Daghestan,NA,1823.64318847656,NA,not_kutan
1633,NA,Арахара-Махи,Dargwa,сирхинско-тантынский,NA,NA,NA,NA,NA,Арахара-Махи,NA,NA,NA,8,NA,NA,NA,NA,NA,NA,NA,NA
1601,Arachanamakhi,Арачанамахи,Dargwa,сев.,Dargwa,NA,TRUE,NA,NA,Арачана-Махи,Арачанамахи,NA,NA,65,187,42.31923,47.58202,Daghestan,NA,1124.91882324219,NA,not_kutan
1433,NA,Арга-Буршна,Dargwa,цуд.,NA,NA,NA,NA,NA,Арга-Буршна,NA,NA,NA,17,NA,NA,NA,NA,NA,NA,NA,NA
257,Argvani,Аргвани,Avar,NA,Avar,NA,TRUE,Аргуани,Аргуани,Аргуани,Аргвани,914,958,974,797,42.8128,46.5792,Daghestan,NA,1593.82104492188,NA,not_kutan
659,Arkas,Аркас,Avar,NA,Avar,NA,TRUE,Аркась,Аркас (Гаркас),Аркас,Аркас,140,146,268,317,42.65194,47.13833,Daghestan,NA,1281.19482421875,NA,not_kutan
8198,NA,Аркаскент,NA,NA,NA,NA,NA,NA,NA,NA,Аркаскент,NA,NA,NA,184,NA,NA,NA,NA,NA,NA,NA
2111,Arkit,Аркит,Tabasaran,NA,Tabasaran,NA,TRUE,Аркит,Аркит,Аркит,Аркит,359,404,422,608,41.947308,48.014025,Daghestan,NA,651.925903320312,NA,not_kutan
3151,Arsug,Арсуг,Aghul,кошанский,Aghul,NA,TRUE,Арсуг,Арсуг (Арсух),Арсуг,Арсуг,286,316,331,235,41.86408,47.65011,Daghestan,NA,1990.76062011719,NA,not_kutan
751,NA,Арта-Арки,Kumyk,NA,NA,NA,NA,NA,NA,Арта-Арки,NA,NA,NA,7,NA,NA,NA,NA,NA,NA,NA,NA
3785,NA,Артель Труда (б. кутан б. Сапарали),Kumyk,NA,NA,NA,NA,NA,NA,Артель Труда (б. кутан б. Сапарали),NA,NA,NA,52,NA,NA,NA,NA,NA,NA,NA,NA
4369,Artlukh,Артлухъ,NA,NA,Avar,NA,NA,Артлух,Артлухъ,NA,NA,329,367,NA,NA,42.8631,46.6683,Daghestan,NA,2046.63842773438,NA,not_kutan
9030,NA,Арукила,Dargwa,сев.,NA,NA,NA,NA,Арукила,NA,NA,NA,218,NA,NA,NA,NA,NA,NA,NA,NA,NA
1795,NA,Арча-Махи,Dargwa,сев.,NA,NA,NA,NA,NA,Арча-Махи,NA,NA,NA,21,NA,NA,NA,NA,NA,NA,NA,NA
921,Archib,Арчиб,Archi,верхне-андийски,Archi,NA,TRUE,Арчи (Ручь),Арчи (Ручь),Арчи,Арчиб,804,765,126,200,42.0664,46.8678,Daghestan,NA,2009.66833496094,NA,not_kutan
259,Archo,Арчо,Karata,карат.,Karata,NA,TRUE,Арчо (Ачуди),"Арчо (Арчу, Ачуди, Арчубъ)",Арчо,Арчо,326,299,406,346,42.597691,46.305756,Daghestan,NA,1524.14245605469,NA,not_kutan
3109,Archug,Арчуг,Tabasaran,NA,Tabasaran,NA,TRUE,Арчуг,"Арчюг (Арчух, Арзух)",Арчуг,Арчуг,100,102,158,109,41.7843,47.86009,Daghestan,NA,1382.79296875,NA,not_kutan
3137,Asakent,Асакент,Lezgian,NA,Lezgian,NA,TRUE,Аса-кент (Асади-хюр),Аса-Кент (Асади-хюр),Асакент,Асакент,309,273,219,107,41.75759,48.00748,Daghestan,NA,1033.77355957031,NA,not_kutan
289,NA,Асали,Chamalal,NA,NA,NA,NA,NA,NA,Асали,NA,NA,NA,24,NA,NA,NA,NA,NA,NA,NA,NA
3091,Asalikent,Асаликент,Lezgian,NA,Lezgian,NA,TRUE,Асали-кент (Аса-али-ди-хюр),Асали-Кент (Аса-Али-Динор),Асаликент,Асаликент,331,318,339,322,41.6298,48.16777,Daghestan,NA,578.463317871094,NA,not_kutan
3669,NA,Асаул,Nogai,NA,NA,NA,NA,NA,NA,Асса-Аул,NA,NA,NA,295,NA,NA,NA,NA,NA,NA,NA,NA
4679,Asakh,Асах,Tsez,цезский,Tsez,NA,TRUE,Асахо,Асахо (Асахъ),Асах,Асах,260,311,130,5,42.26311,45.81684,Daghestan,NA,1857.06994628906,NA,not_kutan
1253,NA,Асса-Хахитил,Avar,NA,NA,NA,NA,NA,NA,Асса-Хахитил,NA,NA,NA,4,NA,NA,NA,NA,NA,NA,NA,NA
261,Assab,Ассаб,Avar,NA,Avar,NA,TRUE,Асса,Асса (Ассабъ),Ассаб,Ассаб,946,979,835,1640,42.471596,46.492475,Daghestan,NA,1596.57141113281,NA,not_kutan
89,NA,Ассаколо,Avar,NA,NA,NA,NA,NA,NA,Ассаколо,NA,NA,NA,27,NA,NA,NA,NA,NA,NA,NA,NA
859,NA,Атланаул,Kumyk,NA,NA,NA,NA,Муселим-аул,Муселим-аул,Муселим-Аул,Атланаул,661,557,688,2375,NA,NA,NA,NA,NA,NA,NA
3699,NA,Атлы-Буюнская будка,Kumyk,NA,NA,NA,NA,NA,NA,Атлы-Буюнская будка,NA,NA,NA,7,NA,NA,NA,NA,NA,NA,NA,NA
3299,Atrik,Атрик,Tabasaran,NA,Tabasaran,NA,TRUE,Атриг,Атрио (Чилек),Атрик,Атрик,136,156,188,238,41.88042,47.78046,Daghestan,NA,1743.97839355469,NA,not_kutan
2267,Afna,Афна,Tabasaran,NA,Tabasaran,NA,TRUE,Афна,Афна,Афна,Афна,118,122,97,193,41.902075,47.861413,Daghestan,NA,1077.34875488281,NA,not_kutan
35,Akhalchi,Ахалчи,Avar,NA,Avar,NA,TRUE,Ахальчи,"Ахальчи (Нижний Большой и Верхний Малый А., Горль и Таса Тад А.)",Ахалчи,Ахалчи,894,843,502,734,42.594957,46.631744,Daghestan,NA,1839.25402832031,NA,not_kutan
3461,NA,Ахар,Lak,NA,NA,NA,NA,"Ахар (Акар, Акарлю)","Ахар (Акар,  Акарлю)",Ахар,NA,595,576,411,NA,NA,NA,NA,NA,NA,NA,NA
665,Akhkent,Ахкент,Avar,NA,Avar,NA,TRUE,Ахкенты (Кахаб-росо),Ахкент (Кахаб-Росо),Ахкент,Ахкент,301,330,394,1248,42.57353,47.18488,Daghestan,NA,1544.99975585938,NA,not_kutan
881,NA,Ахмадатор,Avar,NA,NA,NA,NA,NA,NA,Ахмадатор,NA,NA,NA,50,NA,NA,NA,NA,NA,NA,NA,NA
1511,NA,Ахмед,Avar,NA,NA,NA,NA,NA,NA,Ахмед,NA,NA,NA,3,NA,NA,NA,NA,NA,NA,NA,NA
1413,NA,Ахмед-Махи,Dargwa,муиринский,NA,NA,NA,NA,NA,Ахмед-Махи,NA,NA,NA,6,NA,NA,NA,NA,NA,NA,NA,NA
1741,NA,Ахмед-Хан-Махи,Dargwa,цуд.,NA,NA,NA,NA,NA,Ахмед-Хан-Махи,NA,NA,NA,22,NA,NA,NA,NA,NA,NA,NA,NA
2337,Akhmedkent,Ахмедкент,Dargwa,кайт.?,Dargwa,NA,TRUE,Ахмед-кент (Ахмала-ша),Ахмед Кент (Ахалаша),Ахмедкент,Ахмедкент,611,613,715,1026,42.12036,47.81047,Daghestan,NA,678.575988769531,NA,not_kutan
941,NA,Ахнада,Avar,NA,NA,NA,NA,NA,NA,Ахнада,NA,NA,NA,47,NA,NA,NA,NA,NA,NA,NA,NA
3379,Akhnig,Ахниг,Lezgian,NA,Lezgian,NA,TRUE,Ахниг,"Агних (Агниг, Ахлик)",Ахниг,Ахниг,430,442,300,21,41.5232,47.99481,Daghestan,NA,1169.36584472656,NA,not_kutan
1297,Akhsakadamakhi,Ахсакадамахи,Dargwa,сев.,Dargwa,NA,TRUE,NA,NA,Ахса-Кады-Хунту,Ахсакадамахи,NA,NA,44,205,42.303416,47.381576,Daghestan,NA,1374.48095703125,NA,not_kutan
3931,Akhty,Ахты,Lezgian,NA,Lezgian,NA,TRUE,Ахты (Ахса),Ахты (Ахса),Ахты,Ахты,5935,5789,3870,13405,41.45904,47.746695,Daghestan,NA,1056.3193359375,NA,not_kutan
1053,NA,Ачада,Avar,NA,NA,NA,NA,NA,NA,Ачада,NA,NA,NA,6,NA,NA,NA,NA,NA,NA,NA,NA
8125,NA,Ачи-Су,NA,NA,NA,NA,NA,NA,NA,NA,Ачи-Су,NA,NA,NA,1681,NA,NA,NA,NA,NA,NA,NA
479,NA,Ачилобачи,Tindi,NA,NA,NA,NA,NA,NA,Ачилобачи,NA,NA,NA,37,NA,NA,NA,NA,NA,NA,NA,NA
229,NA,Ачилу,Andi,верхне-андийски,NA,NA,NA,NA,NA,Ачилу,NA,NA,NA,16,NA,NA,NA,NA,NA,NA,NA,NA
2989,NA,Ашага-Араг,Lezgian,NA,NA,NA,NA,Ашага-Араг (Джугуч-Араг),"Ашага-Араг (Ашага-Ага, Аса-Арах, Джунгут-Араг)",Ашага-Араг,NA,713,1140,421,NA,NA,NA,NA,NA,NA,NA,NA
2989,NA,Ашага-Араг,Lezgian,NA,NA,NA,NA,Ашага-Араг (Ага-Араг),"Ашага-Араг (Ашага-Ага, Аса-Арах, Джунгут-Араг)",Ашага-Араг,NA,408,1140,421,NA,NA,NA,NA,NA,NA,NA,NA
3007,Ashaga-Arkhit,Ашага-Архит,Lezgian,NA,Lezgian,NA,TRUE,Ашага-Архит (Ага-Ерахт),"Ашага-Аркит (Ага-Ерахт, Нижний Аркит)",Ашага-Архит,Ашага-Архит,589,546,429,811,41.734607,47.97302,Daghestan,NA,861.138244628906,NA,not_kutan
3065,NA,Ашага-Захит,Lezgian,NA,NA,NA,NA,Ашага-Захит (Ага-Захит),"Ашага-Захит (Ага-Захит, Нижний Захит)",Ашага-Захит,Ашага-Захит,396,349,306,0,NA,NA,NA,NA,NA,NA,NA
2999,Ashaga-Stal,Ашага-Стал,Lezgian,NA,Lezgian,NA,TRUE,"Ашага-Сталь (Ага-кран, Ага-Сталь)","Ашага-Стал (Ага-Стал, Ага-Кран, Нижний Стал)",Ашага-Сталь,Ашага-Стал,1312,1269,1342,2854,41.69724,48.19462,Daghestan,NA,514.984130859375,NA,not_kutan
3001,NA,Ашага-Стальские Казмаляры Верх.,Lezgian,NA,NA,NA,NA,NA,NA,Ашага-Стальские Казмаляры Верх.,NA,NA,NA,87,NA,NA,NA,NA,NA,NA,NA,NA
3005,Ashaga-Tsinit,Ашага-Цинит,Lezgian,NA,Lezgian,NA,TRUE,Ашага-Цинит (Ага-Цилинт),"Ашага-Цинит (Ага-Цилипт, Нижнее Цинит)",Ашага-Цинит,Ашага-Цинит,459,417,415,789,41.72324,48.00882,Daghestan,NA,777.227172851562,NA,not_kutan
3011,Ashaga-Yarak,Ашага-Ярак,Tabasaran,NA,Tabasaran,NA,TRUE,Ярак нижний (Аскан-Ярак),"Ярак Нижний (Ярку Нижн., Аскан-Ярак)",Ашага-Ярак,Ашага-Ярак,338,342,582,1329,41.822988,47.952033,Daghestan,NA,1242.81079101563,NA,not_kutan
2993,Ashagakartas,Ашагакартас,Lezgian,NA,Lezgian,NA,TRUE,Ашага-Картас (Ага-Картас),"Ашага-Картас (Ага-Картас, Нижний-Картас)",Ашага-Картас,Ашагакартас,544,502,306,192,41.63177,48.1193,Daghestan,NA,689.695739746094,NA,not_kutan
3003,Ashaga-Stal-Kazmalyar,Ашагастал-Казмаляр,Lezgian,NA,Lezgian,NA,TRUE,NA,NA,Ашага-Стальские Казмаляры Ниж.,Ашага-Стал-Казмаляр,NA,NA,177,2979,41.681705,48.218336,Daghestan,NA,409.447540283203,NA,not_kutan
3429,Ashakent,Ашакент,Lezgian,NA,Lezgian,NA,TRUE,NA,NA,Аша-Кент,Ашакент,NA,NA,279,210,41.59479,47.87241,Daghestan,NA,1874.18786621094,NA,not_kutan
231,Ashali,Ашали,Andi,верхне-андийски,Andi,NA,TRUE,Ашали,Ашали (Ашуламъ),Ашали,Ашали,263,286,138,788,42.76963,46.30878,Daghestan,NA,1573.82092285156,NA,not_kutan
3017,Ashar,Ашар,Lezgian,NA,Lezgian,NA,TRUE,Ашар,Ашар,Ашар,Ашар,669,711,614,567,41.615664,47.663417,Daghestan,NA,1595.80969238281,NA,not_kutan
45,Ashil'ta,Ашильта,Avar,NA,Avar,NA,TRUE,Ашильта (Ашель),Ашильта (Ашель),Ашильта,Ашильта,443,478,586,1982,42.772446,46.728853,Daghestan,NA,640.283020019531,NA,not_kutan
8015,Ashino,Ашино,NA,NA,Botlikh,NA,NA,NA,NA,NA,Ашино,NA,NA,NA,80,42.683462,46.156727,Daghestan,NA,956.206176757813,NA,not_kutan
3725,NA,Аштан,Dargwa,сев.,NA,NA,NA,NA,NA,Аштан,NA,NA,NA,12,NA,NA,NA,NA,NA,NA,NA,NA
3471,Ashty,Ашты,Dargwa,кубач-ашт.,Dargwa,NA,TRUE,Ашти (Усти),"Ашты (Ашти, Усти)",Ашти,Ашты,894,887,913,395,41.961098,47.502559,Daghestan,NA,1636.76684570313,NA,not_kutan
223,Asha,Аща,Tindi,NA,Tindi,NA,TRUE,Ашали,Ашша (Аша),Ашша,Аща,187,190,261,0,42.450373,46.3334458,Daghestan,NA,3161.02319335937,NA,not_kutan
1585,NA,Ая,Dargwa,сев.,NA,NA,NA,NA,NA,Ая,NA,NA,NA,2,NA,NA,NA,NA,NA,NA,NA,NA
1835,NA,Ая-Бурхи-Махи,Dargwa,сев.,NA,NA,NA,NA,Ая-Бурхида-Махи,Ая-Бурхи-Махи,NA,NA,83,142,NA,NA,NA,NA,NA,NA,NA,NA
9005,Ayalakab,Аялакаб,Dargwa,сев.,Dargwa,NA,TRUE,NA,Аялакак,–,Аялакаб,NA,76,NA,390,42.4231,47.4625,Daghestan,NA,1243.02075195312,NA,not_kutan
1837,Ayalizimakhi,Аялизимахи,Dargwa,сев.,Dargwa,NA,TRUE,Аялизи,Аялизи-Махи,Ая-Лизи-Махи,Аялизимахи,422,399,283,702,42.37684,47.60746,Daghestan,NA,1055.11938476563,NA,not_kutan
1839,Ayamakhi,Аямахи,Dargwa,сев.,Dargwa,NA,TRUE,Ая-Махи,Ая-Махи,Ая-Махи,Аямахи,302,191,290,0,42.40528,47.5725,Daghestan,NA,1096.869140625,NA,not_kutan
1491,Ayatsimakhi,Аяцимахи,Dargwa,сирхинско-тантынский,Dargwa,NA,TRUE,Аядцы-Махи,Аяци-Махи,Аяци-Махи,Аяцимахи,120,114,100,122,42.00618,47.46117,Daghestan,NA,2041.28308105469,NA,not_kutan
1809,Ayatsuri,Аяцури,Dargwa,сирхинско-тантынский,Dargwa,NA,TRUE,Аяцуры-Махи,Аяцури-Махи,Ая-Цури,Аяцури,129,129,82,151,42.07354,47.45121,Daghestan,NA,1704.47766113281,NA,not_kutan
757,NA,Багактул,Kumyk,NA,NA,NA,NA,NA,NA,Багактул,NA,NA,NA,4,NA,NA,NA,NA,NA,NA,NA,NA
1525,NA,Баганд-Махи,Dargwa,сев.,NA,NA,NA,NA,NA,Баганд-Махи,NA,NA,NA,31,NA,NA,NA,NA,NA,NA,NA,NA
3559,Bagikla,Багикла,Lak,NA,Lak,NA,TRUE,Багеклю (Бахикул),"Багеклю (Бахикуль, Бягиклялю)",Бачекла,Багикла,382,361,296,86,42.25308,47.13393,Daghestan,NA,1435.11450195313,NA,not_kutan
1129,Baginub,Багинуб,Avar,NA,Avar,NA,TRUE,Багинуб (Багин),Баггинуб (Баггин),Багинуб,Багинуб,101,132,121,40,42.1743,46.88159,Daghestan,NA,1917.81408691406,NA,not_kutan
2123,Bazhluk,Бажлук,Dargwa,кайт.,Dargwa,NA,TRUE,Бажлук (Бажули),"Бажлук (Бажули, Бажукли)",Бажлук,Бажлук,247,251,284,41,42.040295,47.808314,Daghestan,NA,1167.46374511719,NA,not_kutan
47,Baitl',Баитль,Avar,NA,Avar,NA,TRUE,Баитль,Баитль,Бойтли,Баитль,165,176,144,202,42.546452,46.676472,Daghestan,NA,1783.91552734375,NA,not_kutan
755,NA,Бакал,Kumyk,NA,NA,NA,NA,NA,NA,Бакал,NA,NA,NA,13,NA,NA,NA,NA,NA,NA,NA,NA
197,NA,Бакда,Avar,NA,NA,NA,NA,NA,NA,Бакда,NA,NA,NA,37,NA,NA,NA,NA,NA,NA,NA,NA
1719,Bakni,Бакни,Dargwa,сирхинско-тантынский,Dargwa,NA,TRUE,Бакни,Бакни,Бакни,Бакни,305,307,284,251,42.11618,47.53095,Daghestan,NA,1476.041015625,NA,not_kutan
1057,Balanub,Балануб,Avar,NA,Avar,NA,TRUE,NA,NA,Баланаб,Балануб,NA,NA,120,115,42.4284,46.8251,Daghestan,NA,1032.0556640625,NA,not_kutan
53,Balakhani,Балахани,Avar,NA,Avar,NA,TRUE,Балакани (Балахани),Балаканы (Балаханы),Балаханы,Балахани,898,904,1000,2166,42.63128,46.89514,Daghestan,NA,889.520141601563,NA,not_kutan
1055,NA,Балдутль,Avar,NA,NA,NA,NA,NA,NA,Багдутль,Балдутль,NA,NA,41,11,NA,NA,NA,NA,NA,NA,NA
1621,Baltamakhi,Балтамахи,Dargwa,сев.,Dargwa,NA,TRUE,NA,NA,Балта-Махи,Балтамахи,NA,NA,198,394,42.29843,47.72877,Daghestan,NA,732.907775878906,NA,not_kutan
1401,Balkhar,Балхар,Lak,NA,Lak,NA,TRUE,Балхар,Балхар (Баркарлю),Балхар,Балхар,1424,1437,1195,941,42.2797,47.2314,Daghestan,NA,1658.48388671875,NA,not_kutan
4107,Barnab,Барнаб,Avar,NA,Avar,NA,TRUE,Барнаб,Барнабъ (Баркабъ),Барнаб,Барнаб,97,103,93,400,42.07964,46.37894,Daghestan,NA,1709.30212402344,NA,not_kutan
1933,NA,Бархакент,Dargwa,сев.,NA,NA,NA,Барха-Кент,Барха-Кент,Барха-Кент,NA,106,105,45,NA,NA,NA,NA,NA,NA,NA,NA
2211,Barshamay,Баршамай,Dargwa,кайт.,Dargwa,NA,TRUE,Баршемай,Баршемай (Баршамай),Баршамай,Баршамай,1070,1040,883,2112,42.11176,47.85143,Daghestan,NA,555.4951171875,NA,not_kutan
1059,NA,Басар,Avar,NA,NA,NA,NA,NA,NA,Басар,Басар,NA,NA,20,13,NA,NA,NA,NA,NA,NA,NA
51,Batlaich,Батлаич,Avar,NA,Avar,NA,TRUE,Батлаич,Батлаичъ (Батлагичъ),Батлаич,Батлаич,772,788,770,1083,42.554821,46.754217,Daghestan,NA,1764.73999023438,NA,not_kutan
333,Batlakhatli,Батлахатли,Chamalal,NA,Chamalal,NA,TRUE,NA,NA,Битлохотль,Батлахатли,NA,NA,72,3,42.580364,46.058877,Daghestan,NA,1727.35815429688,NA,not_kutan
1603,Bakhmakhi,Бахмахи,Dargwa,сев.,Dargwa,NA,TRUE,NA,NA,Бахли-Махи,Бахмахи,NA,NA,224,226,42.30638,47.59269,Daghestan,NA,1170.33337402344,NA,not_kutan
1623,NA,Бахмуд-Кент,Dargwa,сев.,NA,NA,NA,NA,NA,Бахмуд-Кент,NA,NA,NA,35,NA,NA,NA,NA,NA,NA,NA,NA
3381,Bakhtsug,Бахцуг,Lezgian,NA,Lezgian,NA,TRUE,Багцуг,"Багцух (Бахцух, Бахсуг)",Бахцуг,Бахцуг,518,573,279,166,41.50975,47.95065,Daghestan,NA,1282.392578125,NA,not_kutan
939,Batsada,Бацада,Avar,NA,Avar,NA,TRUE,Бацада,Бацада (Бецъ),Бацада,Бацада,725,835,877,755,42.3036,46.9092,Daghestan,NA,1580.35974121094,NA,not_kutan
1061,NA,Бацикварих,Avar,NA,NA,NA,NA,NA,NA,Баци-Карюх,Бацикварих,NA,NA,18,3,NA,NA,NA,NA,NA,NA,NA
9020,NA,Баш-Дашагил,Lezgian,NA,NA,NA,NA,Баш-Дашагил,NA,NA,NA,1146,NA,NA,NA,NA,NA,NA,NA,NA,NA,NA
2151,Bashlykent,Башлыкент,Kumyk,NA,Kumyk,NA,TRUE,Александр-кент,Александр-Кент,Джалал-Кент,Башлыкент,1547,1610,1454,3230,42.2597,47.8439,Daghestan,NA,280.568176269531,NA,not_kutan
9018,NA,Баят,North Azerbaijani,NA,NA,NA,NA,Баят (Боят),"Баят (Боят, Баат, Баянт)",NA,NA,18,17,NA,NA,NA,NA,NA,NA,NA,NA,NA
3219,Bedyuk,Бедюк,Aghul,агульский собственно,Aghul,NA,TRUE,"Бедук (Бадёк, Витгих)","Бедук (Бадек, Виттих)",Бедук,Бедюк,209,221,292,301,41.716044,47.525715,Daghestan,NA,2171.84130859375,NA,not_kutan
4121,Bezhta,Бежта,Bezhta,NA,Bezhta,NA,TRUE,Бежита,Бежита (Бежито),Бежита,Бежта,1490,1613,1058,3500,42.1339,46.1247,Daghestan,NA,1633.08129882813,NA,not_kutan
4165,Bezhuda,Бежуда,Avar,NA,Avar,NA,TRUE,Бижида (Бежуда),Бежуда (Бежида),Бежуда,Бежуда,142,148,100,31,42.200348,46.479175,Daghestan,NA,2288.99243164062,NA,not_kutan
919,NA,Без названия,Kumyk,NA,NA,NA,NA,NA,NA,Без названия,NA,NA,NA,83,NA,NA,NA,NA,NA,NA,NA,NA
291,NA,Бекахатль,Chamalal,NA,NA,NA,NA,NA,NA,Бекахатль,NA,NA,NA,26,NA,NA,NA,NA,NA,NA,NA,NA
8016,Beledi,Беледи,NA,NA,Godoberi,NA,NA,NA,NA,NA,Беледи,NA,NA,NA,91,42.66722,46.05361,Daghestan,NA,1746.78979492188,NA,not_kutan
1951,Belidzhi,Белиджи (пгт),Lezgian,NA,Lezgian,NA,TRUE,NA,NA,Белиджи,Белиджи,NA,NA,104,12238,41.870833,48.388611,Daghestan,NA,21.179744720459,NA,not_kutan
1947,NA,Белиджи (село),North Azerbaijani,NA,NA,NA,NA,Билиджи,Билиджи,Белиджи,Белиджи,517,629,339,4282,NA,NA,NA,NA,NA,NA,NA
1953,NA,Белиджи № 6,Armenian,верхне-андийски,NA,NA,NA,NA,NA,Белиджи № 6,NA,NA,NA,4,NA,NA,NA,NA,NA,NA,NA,NA
233,NA,Белилетль,Andi,верхне-андийски,NA,NA,NA,NA,NA,Белилетль,NA,NA,NA,8,NA,NA,NA,NA,NA,NA,NA,NA
345,NA,Белуха,Godoberi,NA,NA,NA,NA,NA,NA,Белуха,NA,NA,NA,4,NA,NA,NA,NA,NA,NA,NA,NA
1301,NA,Бергеинзи,Dargwa,сев.,NA,NA,NA,NA,NA,Бер-Инзи-Махи,Бергеинзи,NA,NA,67,124,NA,NA,NA,NA,NA,NA,NA
1299,NA,Берги-Мак-Махи,Dargwa,сев.,NA,NA,NA,NA,NA,Берги-Мак-Махи,NA,NA,NA,225,NA,NA,NA,NA,NA,NA,NA,NA
1973,NA,Берикей,North Azerbaijani,NA,NA,NA,NA,Берекей,Беркей,Берикей,Берикей,875,850,730,3027,NA,NA,NA,NA,NA,ж/д станция в селе,NA
1973,NA,Берикей,North Azerbaijani,NA,NA,NA,NA,Берекей,Беркей,Берикей,Берикей,875,850,730,3027,NA,NA,NA,NA,NA,село,NA
1977,NA,Берикей,Lezgian,NA,NA,NA,NA,NA,NA,Берикей,NA,NA,NA,17,NA,NA,NA,NA,NA,NA,ж/д станция в селе,NA
1977,NA,Берикей,Lezgian,NA,NA,NA,NA,NA,NA,Берикей,NA,NA,NA,17,NA,NA,NA,NA,NA,NA,село,NA
1979,NA,Берикей № 1,Armenian,верхне-андийски,NA,NA,NA,NA,NA,Берикей № 1,NA,NA,NA,20,NA,NA,NA,NA,NA,NA,NA,NA
1981,NA,Берикей № 2,Russian,NA,NA,NA,NA,NA,NA,Берикей № 2,NA,NA,NA,33,NA,NA,NA,NA,NA,NA,NA,NA
1983,NA,Берикей № 3,Russian,NA,NA,NA,NA,NA,NA,Берикей № 3,NA,NA,NA,102,NA,NA,NA,NA,NA,NA,NA,NA
1985,NA,Берикей № 4,Aghul,агульский собственно,NA,NA,NA,NA,NA,Берикей № 4,NA,NA,NA,11,NA,NA,NA,NA,NA,NA,NA,NA
4715,Berikh,Берих,Tsez,цезский,Tsez,NA,TRUE,NA,NA,Пирох,Берих,NA,NA,52,209,42.23806,46.05306,Daghestan,NA,1756.38781738281,NA,not_kutan
9001,NA,Бет-аул,Kumyk,NA,NA,NA,NA,Бет-аул,Бет-аул,–,NA,674,691,NA,NA,NA,NA,NA,NA,NA,NA,NA
4255,NA,Бетельда,Avar,NA,NA,NA,NA,Метельда (Бетлельда),"Метельда (Бетлельда, Бехельда)",Бетельда,Бетельда,179,169,93,486,NA,NA,NA,NA,NA,NA,NA
1063,NA,Бетер,Avar,NA,NA,NA,NA,NA,NA,Бетер,NA,NA,NA,50,NA,NA,NA,NA,NA,NA,NA,NA
63,Betli,Бетли,Avar,NA,Avar,NA,TRUE,Бетль,Бетль (Бетлитль),Бетль,Бетли,311,335,283,18,42.72372,46.73388,Daghestan,NA,1770.96838378906,NA,not_kutan
1635,Bikalamakhi,Бикаламахи,Dargwa,сирхинско-тантынский,Dargwa,NA,TRUE,Бийкала-Махи,Бийкала-Махи,Бикала-Махи,Бикаламахи,102,76,72,57,42.04647,47.36054,Daghestan,NA,1772.30480957031,NA,not_kutan
3247,Bil'bil'-Kazmalyar,Бильбиль-Казмаляр,Lezgian,NA,Lezgian,NA,TRUE,NA,NA,Бильбиль-Кент-Казмаляр,Бильбиль-Казмаляр,NA,NA,443,2042,41.82188,48.5448,Daghestan,NA,23.214786529541,NA,not_kutan
2035,Bil'gadi,Бильгади,North Azerbaijani,NA,North Azerbaijani,NA,TRUE,NA,NA,Бильгади Казмаляр,Бильгади,NA,NA,176,640,42.08581,48.13462,Daghestan,NA,198.375442504883,NA,not_kutan
293,NA,Бицида,Chamalal,NA,NA,NA,NA,NA,NA,Бицида,NA,NA,NA,58,NA,NA,NA,NA,NA,NA,NA,NA
269,NA,Бичила,Andi,верхне-андийски,NA,NA,NA,NA,NA,Бичила,NA,NA,NA,20,NA,NA,NA,NA,NA,NA,NA,NA
483,NA,Бичичи,Tindi,NA,NA,NA,NA,NA,NA,Бичичи,NA,NA,NA,98,NA,NA,NA,NA,NA,NA,NA,NA
1303,NA,Бични-Махи,Dargwa,сев.,NA,NA,NA,NA,NA,Бични-Махи,NA,NA,NA,44,NA,NA,NA,NA,NA,NA,NA,NA
3777,Bogatyrevka,Богатыревка,Russian,NA,Avar,NA,FALSE,NA,NA,Коркмасовка,Богатыревка,NA,NA,210,3187,43.118523,47.368198,Daghestan,NA,-20.8449687957764,?дубликат,not_kutan
3777,NA,Богатыревка,Russian,NA,NA,NA,NA,NA,NA,Коркмасовка,Богатыревка,NA,NA,210,3187,NA,NA,NA,NA,NA,?дубликат,NA
3781,Bogatyrevka,Богатыревка,Russian,NA,Avar,NA,FALSE,NA,NA,Коркмасовка (б Осадченко),NA,NA,NA,4,NA,43.118523,47.368198,Daghestan,NA,-20.8449687957764,?дубликат,not_kutan
3781,NA,Богатыревка,Russian,NA,NA,NA,NA,NA,NA,Коркмасовка (б Осадченко),NA,NA,NA,4,NA,NA,NA,NA,NA,NA,?дубликат,NA
819,NA,Богатырь,Avar,NA,NA,NA,NA,NA,NA,Богатырь,NA,NA,NA,78,NA,NA,NA,NA,NA,NA,NA,NA
1091,Bol'shoy Urala,Большой Урала,Avar,NA,Avar,NA,TRUE,NA,NA,Урала,Большой Урала,NA,NA,250,173,42.424277,46.805844,Daghestan,NA,1331.03063964844,NA,not_kutan
759,NA,Боралаго-Озло,Kumyk,NA,NA,NA,NA,NA,NA,Боралаго-Озло,NA,NA,NA,18,NA,NA,NA,NA,NA,NA,NA,NA
3941,NA,Борч,Rutul,NA,NA,NA,NA,Борч (Бурж),"Борч (Бурж, Пуча)",Борч,Борч,2290,2361,2325,19,NA,NA,NA,NA,NA,NA,NA
263,Botlikh,Ботлих,Botlikh,NA,Botlikh,NA,TRUE,Ботлих,Болтих (Батлькалъ),Ботлих,Ботлих,1105,1041,1070,10787,42.667813,46.221451,Daghestan,NA,963.75537109375,NA,not_kutan
4271,Bochokh,Бочох,Avar,NA,Avar,NA,TRUE,Бочок (Бочох),"Бочокъ (Бочохъ, Бочекъ)",Бочах,Бочох,40,49,28,81,42.22,46.28472,Daghestan,NA,1851.06127929688,NA,not_kutan
1543,Buanzimakhi,Буанзимахи,Dargwa,сев.,Dargwa,NA,TRUE,NA,Буанцала,Буанцы,Буанзимахи,NA,140,173,168,42.42062,47.44966,Daghestan,NA,1307.66564941406,NA,not_kutan
671,Buglen,Буглен,Kumyk,NA,Kumyk,NA,TRUE,Буглен,Буглен (Бугулен),Буглен,NA,1012,942,816,NA,42.7553,47.1989,Daghestan,NA,521.49658203125,явно одно и то же село,not_kutan
671,NA,Буглен,Kumyk,NA,NA,NA,NA,Буглен,Буглен (Бугулен),Буглен,NA,1012,942,816,NA,NA,NA,NA,NA,NA,явно одно и то же село,NA
1955,NA,Будка № 202,Muslim Tat,NA,NA,NA,NA,NA,NA,Будка № 202,NA,NA,NA,12,NA,NA,NA,NA,NA,NA,NA,NA
1957,NA,Будка № 211,Russian,NA,NA,NA,NA,NA,NA,Будка № 211,NA,NA,NA,3,NA,NA,NA,NA,NA,NA,NA,NA
829,NA,Будка на 18 в.,Kumyk,NA,NA,NA,NA,NA,NA,Будка на 18 в.,NA,NA,NA,4,NA,NA,NA,NA,NA,NA,NA,NA
833,NA,Будка на 27 в.,Lak,NA,NA,NA,NA,NA,NA,Будка на 27 в.,NA,NA,NA,6,NA,NA,NA,NA,NA,NA,NA,NA
831,NA,Будка на 8 в.,Kumyk,NA,NA,NA,NA,NA,NA,Будка на 8 в.,NA,NA,NA,7,NA,NA,NA,NA,NA,NA,NA,NA
9,NA,Буйнакск,Russian,NA,NA,NA,NA,NA,NA,Буйнакск (б. Темир-Хан-Шура),Буйнакск,NA,NA,3046,58625,NA,NA,NA,NA,NA,NA,NA
1637,Bukkamakhi,Буккамахи,Dargwa,сирхинско-тантынский,Dargwa,NA,TRUE,Боккале-Махи (Буккале-Махи),Буккала-Махи,Букала-Махи,Буккамахи,178,167,118,58,42.03148,47.41884,Daghestan,NA,1760.23791503906,NA,not_kutan
347,NA,Букуду,Godoberi,NA,NA,NA,NA,NA,NA,Букуду,NA,NA,NA,6,NA,NA,NA,NA,NA,NA,NA,NA
1745,NA,Букун-Махи,Dargwa,цуд.,NA,NA,NA,NA,NA,Букун-Махи,NA,NA,NA,14,NA,NA,NA,NA,NA,NA,NA,NA
1273,NA,Бунараб-Рохоб,Avar,NA,NA,NA,NA,NA,NA,Бунараб-Рохоб,NA,NA,NA,42,NA,NA,NA,NA,NA,NA,NA,NA
1569,NA,Бураган-Махи,Dargwa,сев.,NA,NA,NA,NA,NA,Бураган-Махи,NA,NA,NA,5,NA,NA,NA,NA,NA,NA,NA,NA
3275,Burgankent,Бурганкент,Tabasaran,NA,Tabasaran,NA,TRUE,Бурган-кент,Бургам-Кент (Бургах Кент),Бурган-Кент,Бурганкент,104,105,146,704,41.89939,48.06439,Daghestan,NA,621.0244140625,NA,not_kutan
1305,Burgimakmakhi,Бургимакмахи,Dargwa,сев.,Dargwa,NA,TRUE,Бурхимак,Бурхимакъ-Махи,Бурги-Ман-Махи,Бургимакмахи,144,185,63,1283,42.2897,47.3769,Daghestan,NA,1333.25146484375,NA,not_kutan
1307,Burgimakhi,Бургимахи,Dargwa,сев.,Dargwa,NA,TRUE,NA,NA,Бурхи-Махи,Бургимахи,NA,NA,50,136,42.27489,47.28652,Daghestan,NA,1512.24951171875,NA,not_kutan
1241,NA,Бурдали,Avar,NA,NA,NA,NA,NA,NA,Бурдали,NA,NA,NA,70,NA,NA,NA,NA,NA,NA,NA,NA
1407,Burdeki,Бурдеки,Dargwa,сев.,Dargwa,NA,TRUE,Бурдеки,"Бурдеки (Бурдаки, Вердюк, Мурдук)",Бурдек,Бурдеки,339,335,399,652,42.3047,47.6703,Daghestan,NA,747.930297851562,NA,not_kutan
3021,Burkikhan,Буркихан,Aghul,агульский собственно,Aghul,NA,TRUE,"Боркихан (Буркихан, Гёкёпар)",Буркихан (Бор. - Гёкёнар),Буркихан,Буркихан,695,710,780,1193,41.806356,47.538467,Daghestan,NA,1917.41918945313,NA,not_kutan
1905,Burtanimakhi,Буртанимахи,Dargwa,цуд.,Dargwa,NA,TRUE,NA,Буртани-Махи,Буртани-Махи Нижн.,Буртанимахи,NA,314,242,300,42.37097,47.14988,Daghestan,NA,1071.83776855469,NA,not_kutan
3573,NA,Буртни,Lak,NA,NA,NA,NA,Буртни (Буртун),"Буртни (Бурутун, Буртнилю)",Буртни,NA,133,142,107,NA,NA,NA,NA,NA,NA,NA,NA
1779,NA,Бурхи-Махи,Dargwa,цуд.,NA,NA,NA,NA,NA,Бурхи-Махи,NA,NA,NA,46,NA,NA,NA,NA,NA,NA,NA,NA
1605,Burkhimakhi,Бурхимахи,Dargwa,сев.,Dargwa,NA,TRUE,NA,Бурха-Кент,Бурги-Махи,Бурхимахи,NA,162,171,130,42.3065,47.58607,Daghestan,NA,1176.21948242188,NA,not_kutan
3495,NA,Бурцанах,Lak,NA,NA,NA,NA,Бохсонахи (Букцанах),"Боксанахи (Боксанах, Буруканах, Бухцанах)",Бурцанах,NA,50,49,38,NA,NA,NA,NA,NA,NA,NA,NA
761,NA,Бурчике,Kumyk,NA,NA,NA,NA,NA,NA,Бурчике,NA,NA,NA,12,NA,NA,NA,NA,NA,NA,NA,NA
1747,NA,Бурш-Махи,Dargwa,цуд.,NA,NA,NA,NA,NA,Бурш-Махи,NA,NA,NA,58,NA,NA,NA,NA,NA,NA,NA,NA
3153,Burshag,Буршаг,Aghul,кошанский,Aghul,NA,TRUE,Буршаг,Буршаг (Пурчиглу),Буршаг,Буршаг,291,289,341,655,41.89626,47.64102,Daghestan,NA,2223.83544921875,NA,not_kutan
3477,Burshi,Бурши,Lak,NA,Lak,NA,TRUE,Бурши,"Бурши (Борши, Боршилю)",Бурши,Бурши,527,539,413,211,42.03161,47.06349,Daghestan,NA,2270.55444335938,NA,not_kutan
2167,Buskri,Бускри,Dargwa,муиринский,Dargwa,NA,TRUE,Бускри,"Бускры (Бускури, Мускры)",Бускры,Бускри,686,691,702,686,42.17359,47.66673,Daghestan,NA,1369.287109375,NA,not_kutan
9997,Buti,Бути,NA,NA,Chechen,NA,NA,NA,NA,NA,NA,NA,NA,NA,NA,42.661389,45.97,Chechnya,NA,1701.61120605469,NA,not_kutan
3313,But-Kazmalyar,Бутказмаляр,Lezgian,NA,Lezgian,NA,TRUE,NA,NA,Бут-Кент-Казмаляр,Бут-Казмаляр,NA,NA,131,3127,41.705274,48.396665,Daghestan,NA,247.459426879883,NA,not_kutan
3023,Butkent,Буткент,Lezgian,NA,Lezgian,NA,TRUE,Бут-кент (Бута-хюр),Бут Кент (Бута-Хюр),Буткент,Буткент,328,305,205,463,41.60008,48.17998,Daghestan,NA,780.917114257813,NA,not_kutan
1409,Butri,Бутри,Dargwa,усиша-бутринский,Dargwa,NA,TRUE,Бутри,Бутри,Бутри,Бутри,1294,1205,1097,1098,42.07426,47.44048,Daghestan,NA,1560.35900878906,NA,not_kutan
1811,Butulta,Бутулта,Dargwa,сирхинско-тантынский,Dargwa,NA,TRUE,Бутлудда-Махи,Бурлудда-Махи,Будлудта,Бутулта,81,68,70,40,42.07426,47.44048,Daghestan,NA,1560.35900878906,NA,not_kutan
875,NA,Бухна-Бака,Avar,NA,NA,NA,NA,NA,NA,Бухна-Бака,NA,NA,NA,12,NA,NA,NA,NA,NA,NA,NA,NA
2393,Bukhnag,Бухнаг,Tabasaran,NA,Tabasaran,NA,TRUE,Бахнаг (Бухнаг),"Богнах (Бугнах, Бухнал, Бухнаг)",Бухнаг,Бухнаг,91,93,76,195,41.910587,47.872994,Daghestan,NA,999.487670898438,NA,not_kutan
3481,Bukhty,Бухты,Avar,NA,Avar,NA,TRUE,Бухти,Бухты (Бухтылю),Бухты,Бухты,548,580,726,994,42.240712,46.985633,Daghestan,NA,1802.77905273438,NA,not_kutan
67,Butsra,Буцра,Avar,NA,Avar,NA,TRUE,Буцра,Бурца,Буцра,Буцра,682,675,614,1429,42.58902,46.7677,Daghestan,NA,1599.2099609375,NA,not_kutan
1841,NA,Буцра-Махи,Dargwa,сев.,NA,NA,NA,NA,Буцраула,Буцра-Махи,NA,NA,96,182,NA,NA,NA,NA,NA,NA,NA,NA
895,NA,бывший Черкей,Avar,NA,NA,NA,NA,Чиркей новый,Чиркей Новый (Черкей Новый),Черкей Нов.,NA,894,821,345,NA,NA,NA,NA,NA,NA,NA,NA
8066,Vavilovo,Вавилово,NA,NA,Lezgian,NA,NA,NA,NA,NA,Вавилово,NA,NA,NA,235,41.98331,48.33065,Daghestan,NA,-7,NA,not_kutan
1309,NA,Вайкот,Dargwa,сев.,NA,NA,NA,NA,NA,Вайкот,NA,NA,NA,48,NA,NA,NA,NA,NA,NA,NA,NA
715,NA,Ванаков,Dargwa,кадар.,NA,NA,NA,NA,NA,Ванаков,NA,NA,NA,351,NA,NA,NA,NA,NA,NA,NA,NA
717,NA,Ванашимахи,Dargwa,кадар.,NA,NA,NA,NA,NA,Ванаши,Ванашимахи,NA,NA,380,283,NA,NA,NA,NA,NA,Буйнакский район,NA
717,NA,Ванашимахи,Dargwa,кадар.,NA,NA,NA,NA,NA,Ванаши,Ванашимахи,NA,NA,380,283,NA,NA,NA,NA,NA,Сергокалинский район,NA
1843,NA,Ванашимахи,Dargwa,сев.,NA,NA,NA,Ванаша-Махи,Ванаша-Махи,Ванаша-Махи,Ванашимахи,465,434,537,760,NA,NA,NA,NA,NA,Буйнакский район,NA
1843,NA,Ванашимахи,Dargwa,сев.,NA,NA,NA,Ванаша-Махи,Ванаша-Махи,Ванаша-Махи,Ванашимахи,465,434,537,760,NA,NA,NA,NA,NA,Сергокалинский район,NA
3575,NA,Варай,Lak,NA,NA,NA,NA,Варай (Барайлю),Варай (Барайлю),Варай,NA,182,189,129,NA,NA,NA,NA,NA,NA,NA,NA
2121,Varsit,Варсит,Dargwa,кайт.,Dargwa,NA,TRUE,Варсит (Варсита),Варсит (Варсита),Варсит,Варсит,278,266,235,243,41.992062,47.82111,Daghestan,NA,1151.57153320313,NA,not_kutan
2425,NA,Вартатиль,Tabasaran,NA,NA,NA,NA,Вартатиль,Вартатиль,Вартатиль,NA,146,155,154,NA,NA,NA,NA,NA,NA,NA,NA
3483,Vachi,Вачи,Lak,NA,Lak,NA,TRUE,Вачи (Ваччи),"Вачи (Ватчи, Ваччилю)",Вачи,Вачи,809,827,771,816,42.0722,47.2136,Daghestan,NA,1733.46203613281,NA,not_kutan
3119,NA,Векеляр,Lezgian,NA,NA,NA,NA,NA,NA,Векеляр-Казм.,NA,NA,NA,22,NA,NA,NA,NA,NA,NA,NA,NA
1987,Velikent,Великент,North Azerbaijani,NA,North Azerbaijani,NA,TRUE,Вели-кент (Вали-кент),Великент (Вали-Кент),Великент,Великент,967,975,1194,4203,42.1875,48.0647,Daghestan,NA,55.1213874816895,NA,not_kutan
3301,NA,Вертиль,Tabasaran,NA,NA,NA,NA,Вертил (Виртиль),"Вертил (Виртил, Вуртил, Куштиль)",Вертиль,Вертиль,129,135,110,170,NA,NA,NA,NA,NA,NA,NA
2439,NA,Верх. Гулли,Dargwa,муиринский,NA,NA,NA,Гулли (Хули),Гули (Хули),Гулли Верх.,NA,596,592,390,NA,NA,NA,NA,NA,NA,NA,NA
285,NA,Верхнее Гаквари,Chamalal,NA,NA,NA,NA,NA,NA,В. Гаквари,Верхнее Гаквари,NA,NA,191,383,NA,NA,NA,NA,NA,NA,NA
387,Verkhnee Inkhelo,Верхнее Инхело,Karata,карат.,Karata,NA,TRUE,"Инхели-верхнее (Каа-инхили, Тад-Энхели)","Верхнее Энхели (Каа-Энхели, Тад-Энхели)",Инхело Верхн.,Верхнее Инхело,404,300,41,400,42.62035,46.329732,Daghestan,NA,1356.06799316406,NA,not_kutan
397,Verkhnee Inkho,Верхнее Инхо,Avar,NA,Avar,NA,TRUE,Инхо верхнее (Тад-инху),"Верхнее Инхо (Тад-Инхо, Инху)",Инхо Верхн.,Верхнее Инхо,399,423,380,1030,42.70659,46.50415,Daghestan,NA,633.350402832031,NA,not_kutan
8192,Verkhnee Inkhokvari,Верхнее Инхоквари,NA,NA,Xvarshi,Inkhoqwari,NA,NA,NA,NA,Верхнее Инхоквари,NA,NA,NA,146,42.415524,46.065273,Daghestan,NA,2045.45251464844,NA,not_kutan
725,Verkhnee Kazanische,Верхнее Казанище,Kumyk,NA,Kumyk,NA,TRUE,Казанищи верхние,"Казанищи Малые, Верхние (Иогары-Казаниш)",Казанище В.,Верхнее Казанище,2019,1972,2438,6576,42.7306,47.1381,Daghestan,NA,725.3349609375,NA,not_kutan
1519,NA,Верхнее Лабкомахи,Dargwa,сев.,NA,NA,NA,Лапко-Махи,Лапко-Махи,Лапко-Махи Верхн.,Верхнее Лабкомахи,599,618,691,743,NA,NA,NA,NA,NA,NA,NA
1861,NA,Верхнее Махаргимахи,Avar,NA,NA,NA,NA,Махарги,Верх. Магарги-Махи,Магарги Верхн.,Верхнее Махаргимахи,618,334,216,93,NA,NA,NA,NA,NA,NA,NA
4735,NA,Верхнее Хваршини,Avar,NA,NA,NA,NA,Хоршини верх. (Тад-Коаршини),Верхние Хваршины (Тадъ-Коаршины),В. Хваршины,Верхнее Хваршини,129,156,160,245,NA,NA,NA,NA,NA,NA,NA
39,Verkhnie Akhalchi,Верхние Ахалчи,Avar,NA,Avar,NA,TRUE,NA,NA,Тад-Ахалчи,NA,NA,NA,139,NA,42.59911,46.63581,Daghestan,NA,1862.80895996094,NA,not_kutan
1595,Verkhnie Mulebki,Верхние Мулебки,Dargwa,сев.,Dargwa,NA,TRUE,Верхние Мулебки,Верх. Мулебки (Шибах-Мулебки),Мулебки В.,Верхние Мулебки,1421,1419,1157,1446,42.31043,47.51924,Daghestan,NA,1530.20556640625,NA,not_kutan
169,Verkhniy Aradirikh,Верхний Арадирих,Avar,NA,Avar,NA,TRUE,Харадерик верхний (Таса-Харадерик),Верхний Харадырикъ (Таса Х.),В. Харадырых,Верхний Арадирих,276,260,267,495,42.67099,46.60372,Daghestan,NA,1882.21154785156,NA,not_kutan
1501,NA,Верхний Арши,Dargwa,цуд.,NA,NA,NA,Арша-Махи,Арша-Махи,Арша-Махи,Верхний Арши,362,319,401,993,NA,NA,NA,NA,NA,NA,NA
59,Verkhniy Batlukh,Верхний Батлух,Avar,NA,Avar,NA,TRUE,Бактлук верхний (Таса-Бактлук),Верхний Бахлухъ (Таса),Бактлух верх.,Верхний Батлух,234,239,268,455,42.496276,46.502217,Daghestan,NA,1591.95349121094,NA,not_kutan
701,Verkhniy Dzhengutay,Верхний Дженгутай,Avar,NA,Avar,NA,TRUE,Джентугай верхний (Таса-Жунгут),"Дженгутай Малый, Вехний (Иогары-Дженгутай, по-кумыкски Вехний Дженгутай; Таса-Жунгут, по-аварски Верхний Дженгутай)",Дженгутай В.,Верхний Дженгутай,1856,1756,1479,2145,42.67476,47.23415,Daghestan,NA,742.350402832031,NA,not_kutan
711,Verkhnie Ishkarty,Верхний Ишкарты,Kumyk,NA,Kumyk,NA,TRUE,NA,NA,Ишкарты Вер.,Верхнее Ишкарты,NA,NA,180,377,42.84907,46.95309,Daghestan,NA,848.094116210937,"в Википедии Верхнее, на картах Верхние",not_kutan
1355,NA,Верхний Кавкамахи,Dargwa,сев.,NA,NA,NA,Тумка-Кабка,Тумкакавк-Махи,Тумка-Кавка,Верхний Кавкамахи,749,105,86,452,NA,NA,NA,NA,NA,NA,NA
1387,Verkhnie Kamkamakhi,Верхний Камкамахи,Dargwa,цуд.,Dargwa,NA,TRUE,NA,NA,Камга-Махи,Верхний Камкамахи,NA,NA,15,75,42.32265,47.23945,Daghestan,NA,1334.09692382813,"в Википедии Верхний, на картах Верхние",not_kutan
817,Verkhniy Karanay,Верхний Каранай,Avar,NA,Avar,NA,TRUE,Каранай верхний,Каранай Верхний (Новый),Каранай Верх.,Верхний Каранай,778,850,1161,737,42.8281,46.9072,Daghestan,NA,1230.20056152344,NA,not_kutan
1647,Verkhniy Karshli,Верхний Каршли,Dargwa,сирхинско-тантынский,Dargwa,NA,TRUE,NA,Каршулла-Махи,Каршила-Махи Верхн.,Верхний Каршли,NA,260,140,165,42.05018,47.34231,Daghestan,NA,1860.208984375,NA,not_kutan
3979,Verkhniy Katrukh,Верхний Катрух,Lak,NA,Lak,NA,TRUE,Катрух верхний (Ялу-Чатлух),"Верхний Катрух, Малый (Ялу Чарлух)",Верх. Катрух,Верхний Катрух,182,207,261,425,41.7468,47.22355,Daghestan,NA,2129.037109375,NA,not_kutan
1011,Verkhniy Kolob,Верхний Колоб,Avar,NA,Avar,NA,TRUE,NA,NA,Керта-Коло,Верхний Колоб,NA,NA,159,81,42.42614,46.6579,Daghestan,NA,1733.33654785156,NA,not_kutan
1737,Verkhnie Ubekimakhi,Верхний Убекимахи,Dargwa,цуд.,Dargwa,NA,TRUE,Обеки-Махи (Убеки-Махи),"Обеки-Махи (Убеки-Махи, Косолабек-Махи)",Убеки-Махи Верхн.,Верхний Убекимахи,712,644,411,842,42.36823,47.24298,Daghestan,NA,1230.01159667969,"в Википедии Верхний, на картах Верхние",not_kutan
1661,Verkhnie Chiamakhi,Верхний Чиамахи,Dargwa,сирхинско-тантынский,Dargwa,NA,TRUE,Чаха-Махи,Чиха-Махи,Чиба-Чигалицы,Верхний Чиамахи,172,170,115,78,42.02996,47.38803,Daghestan,NA,1860.20874023438,NA,not_kutan
2427,Vechrik,Вечрик,Tabasaran,NA,Tabasaran,NA,TRUE,Вичрик,Вичриг,Вичрик,Вечрик,117,122,113,288,41.9171,47.96184,Daghestan,NA,1021.34313964844,NA,not_kutan
1411,Vikri,Викри,Dargwa,муиринский,Dargwa,NA,TRUE,Выхри,"Выхри (Викра, Икри)",Викри,Викри,925,909,834,22,42.20612,47.679702,Daghestan,NA,1226.16125488281,NA,not_kutan
3527,NA,Вилттащи,Lak,NA,NA,NA,NA,Вильтах (Вильташи),"Вильтах (Вильташи, Вильтехлю)",Вильтах,NA,238,234,165,NA,NA,NA,NA,NA,NA,NA,NA
3465,Viraty,Вираты,Lak,NA,Lak,NA,TRUE,Вирати,"Вирати (Вираты, Виратилю)",Вираты,Вираты,143,159,129,50,42.15675,47.20107,Daghestan,NA,1910.84252929687,NA,not_kutan
3487,NA,Вихли,Lak,NA,NA,NA,NA,Вихли (Вихул),Вихли (Вихуль),Вихли,Вихли,1283,1298,1195,1275,NA,NA,NA,NA,NA,NA,NA
4765,Vitsiyatl',Вициятли,Tsez,цезский,Tsez,NA,TRUE,Вициатль (Унции),Вициятль,Вициятль,Вициятль,69,116,49,178,42.197434,45.888164,Daghestan,NA,1912.27941894531,NA,not_kutan
3847,NA,Водокачка ж.-д.,Russian,NA,NA,NA,NA,NA,NA,Водокачка ж.-д.,NA,NA,NA,12,NA,NA,NA,NA,NA,NA,NA,NA
1989,NA,Волкова,North Azerbaijani,NA,NA,NA,NA,NA,NA,Волкова,NA,NA,NA,3,NA,NA,NA,NA,NA,NA,NA,NA
4017,Vrush,Вруш,Lezgian,NA,Rutul,NA,FALSE,Уруш,Уруш,Уруж,Вруш,187,181,236,29,41.646787,47.310094,Daghestan,NA,1818.45361328125,NA,not_kutan
4235,Gagar,Гагар,Avar,NA,Avar,NA,TRUE,"Гагар (Агар, Гагаб)","Гагаръ (Агагаръ, Гагабъ)",Гагор,Гагар,247,248,181,659,41.999252,46.592744,Daghestan,NA,2145.80590820312,NA,not_kutan
267,Gagatli,Гагатли,Andi,верхне-андийски,Andi,NA,TRUE,Гагатль,Гагатль (Гагудиралъ),Гагатль,Гагатли,1360,1500,1981,3543,42.800361,46.292645,Daghestan,NA,1713.54443359375,NA,not_kutan
485,NA,Гагичи,Tindi,NA,NA,NA,NA,NA,NA,Гагичи,NA,NA,NA,10,NA,NA,NA,NA,NA,NA,NA,NA
487,Gadaychi,Гадайчи,Tindi,NA,Tindi,NA,TRUE,NA,NA,Гадачи,Гадайчи,NA,NA,73,210,42.470059,46.070951,Daghestan,NA,1052.09020996094,NA,not_kutan
275,Gadari,Гадари,Avar,NA,Avar,NA,TRUE,Гадари (Кадари),Гадари,Гадари,Гадари,359,355,306,254,42.807303,46.621237,Daghestan,NA,1272.22509765625,NA,not_kutan
277,Gadiri,Гадири,Chamalal,NA,Chamalal,NA,TRUE,Гадири,"Гадыри (Хадыри, Гади)",Гадири,Гадири,481,547,522,418,42.566265,46.065746,Daghestan,NA,1965.58154296875,NA,not_kutan
3099,NA,Газардкам-Казмаляр,Lezgian,NA,NA,NA,NA,NA,NA,Газарди-Кам-Казмаляр,Газардкам-Казмаляр,NA,NA,100,378,NA,NA,NA,NA,NA,NA,NA
1065,NA,Газилала,Avar,NA,NA,NA,NA,NA,NA,Галла,Газилала,NA,NA,92,12,NA,NA,NA,NA,NA,NA,NA
2213,Gaziya,Газия,Dargwa,кайт.,Dargwa,NA,TRUE,Газiя,Газiя,Газия,Газия,171,166,90,386,42.085935,47.817633,Daghestan,NA,516.368713378906,NA,not_kutan
4691,Gakko,Гакко,Avar,NA,Chamalal,NA,FALSE,Гако (Хако),"Гако (Хако, Гаку)",Гако,Гакко,448,480,368,320,42.47024,45.882,Daghestan,NA,1624.90173339844,NA,not_kutan
4713,Galatli,Галатли,Tsez,цезский,Tsez,NA,TRUE,NA,Кутатли (Кутатотль),Кулутлы,Галатли,NA,194,48,199,42.288201,45.894106,Daghestan,NA,2029.05493164062,NA,not_kutan
1513,NA,Гамза,Avar,NA,NA,NA,NA,NA,NA,Гамза,NA,NA,NA,4,NA,NA,NA,NA,NA,NA,NA,NA
1781,NA,Гамза-Махи,Dargwa,цуд.,NA,NA,NA,NA,NA,Гамза-Махи,NA,NA,NA,13,NA,NA,NA,NA,NA,NA,NA,NA
3631,Gamiyakh,Гамиях,Lak,NA,Avar,NA,FALSE,Гомiах (Гамiек),"Гомiях (Гомiах, Гамiехлю, Гамiяши)",Гамиях,NA,407,411,291,NA,43.2075,46.4886,Daghestan,NA,216.658294677734,NA,not_kutan
1279,Gamsutl',Гамсутль,Avar,NA,Avar,NA,TRUE,Гамсутль,Гамсутль (Гансутль),Гамсутль,Гамсутль,204,222,227,6,42.301972,46.996315,Daghestan,NA,1646.52697753906,NA,not_kutan
235,NA,Гана,Andi,верхне-андийски,NA,NA,NA,NA,NA,Гана,NA,NA,NA,27,NA,NA,NA,NA,NA,NA,NA,NA
489,NA,Ганга,Tindi,NA,NA,NA,NA,NA,NA,Ганга,NA,NA,NA,36,NA,NA,NA,NA,NA,NA,NA,NA
1313,Ganderamakhi,Гандарамахи,Dargwa,сев.,Dargwa,NA,TRUE,NA,NA,Гандра-Махи,Гандарамахи,NA,NA,78,186,42.261093,47.333465,Daghestan,NA,1464.74450683594,в Википедии и на картах Гандарамахи,not_kutan
1311,NA,Ганжала-Кади Кунт,Dargwa,сев.,NA,NA,NA,NA,NA,Ганжала-Кади Кунт,NA,NA,NA,117,NA,NA,NA,NA,NA,NA,NA,NA
1749,NA,Ганца-Махи,Dargwa,цуд.,NA,NA,NA,NA,NA,Ганца-Махи,NA,NA,NA,34,NA,NA,NA,NA,NA,NA,NA,NA
1417,Gapshima,Гапшима,Dargwa,гапш.,Dargwa,NA,TRUE,Гапшима,Гапшима,Гапшима,Гапшима,741,727,656,1706,42.2122,47.3261,Daghestan,NA,1603.01037597656,NA,not_kutan
4207,Garakolob,Гараколоб,Avar,NA,Avar,NA,TRUE,Гара-Коло,Гара-Коло (Гаракулабъ),Кара-Коло,Гараколоб,91,98,60,246,42.048887,46.455015,Daghestan,NA,2067.20190429687,NA,not_kutan
3993,Garakh,Гарах,Lezgian,NA,Lezgian,NA,TRUE,NA,NA,Гарах,Гарах,NA,NA,308,362,41.48148,48.04608,Daghestan,NA,785.95166015625,NA,not_kutan
4221,NA,Гарбутль,Hunzib,NA,NA,NA,NA,Горбутль (Гарботль),"Горбутль (Гарботль, Гарбитль)",Горбутль,Гарбутль,129,134,55,249,NA,NA,NA,NA,NA,NA,NA
3165,Garig,Гарик,Tabasaran,NA,Tabasaran,NA,TRUE,"Гериг (Гариг, Гириг)","Герик (Гериг, Гарик, Гирик)",Гериг,Гариг,88,89,103,37,41.8766,47.88498,Daghestan,NA,1111.50830078125,в исходном файле Гариг,not_kutan
2399,Gasikh,Гасик,Tabasaran,NA,Tabasaran,NA,TRUE,Гасиг,Гасих (Гасик),Гасик,Гасик,160,164,173,404,41.92398,47.8847,Daghestan,NA,1148.41589355469,в википедии и на картах Гасик,not_kutan
365,NA,Гахибет,Botlikh,NA,NA,NA,NA,NA,NA,Гахибет,NA,NA,NA,4,NA,NA,NA,NA,NA,NA,NA,NA
73,Gatsalukh,Гацалух,Avar,NA,Avar,NA,TRUE,Гоцалух (Ацалух),Гоцалухъ (Ацалухъ),Гацалух,Гацалух,340,364,363,473,42.59298,46.64949,Daghestan,NA,1871.66149902344,NA,not_kutan
279,Gachitli,Гачитли,Chamalal,NA,Chamalal,NA,TRUE,Гачитль,Гачитль,Гачитли,Гачитли,121,117,75,128,42.551361,46.088803,Daghestan,NA,1763.30981445313,NA,not_kutan
491,NA,Гачитль,Tindi,NA,NA,NA,NA,NA,NA,Гачитль,NA,NA,NA,31,NA,NA,NA,NA,NA,NA,NA,NA
2103,Gasha,Гаша,Kumyk,NA,Kumyk,NA,TRUE,Гашiя (Гаша),"Гашия (Гаша, Газия)",Гашия,Гаша,174,169,81,54,42.33592,47.83067,Daghestan,NA,353.794708251953,NA,not_kutan
763,NA,Гашибит,Kumyk,NA,NA,NA,NA,NA,NA,Гашибит,NA,NA,NA,53,NA,NA,NA,NA,NA,NA,NA,NA
4243,Gvedysh,Гведыш,Avar,NA,Avar,NA,TRUE,Гведиш (Гундуш),Гведишь (Ги(у)ндушъ),Гведыш,Гведыш,202,200,99,766,42.13591,46.41437,Daghestan,NA,1853.4951171875,NA,not_kutan
493,Gvanachi,Гвиначи,Tindi,NA,Tindi,NA,TRUE,NA,NA,Гуначи,Гвиначи,NA,NA,141,45,42.4606005,46.1622609,Daghestan,NA,1965.69189453125,в Википедии и на картах Гвиначи,not_kutan
4059,Gdym,Гдым,Lezgian,NA,Lezgian,NA,TRUE,Гдым (Гедум),Гдым (Гедум),Гдым,Гдым,610,641,180,388,41.308839999999996,47.4668,Daghestan,NA,2026.66284179687,NA,not_kutan
3935,Gdynk,Гдынк,Lezgian,NA,Lezgian,NA,TRUE,Гдунг (Котунк),"Гдунг (Котунк, Кдут, Гедуник)",Гтынч,Гдынк,364,365,301,398,41.457263,47.657293,Daghestan,NA,1590.71643066406,NA,not_kutan
1425,Geba,Геба,Dargwa,усиша-бутринский,Dargwa,NA,TRUE,"Гиба (Шиба, Шевкли)",Гиба (Шиба),Гиба,Геба,573,540,536,737,42.21527,47.39266,Daghestan,NA,1633.94787597656,NA,not_kutan
4189,Gebguda,Гебгуда,Avar,NA,Avar,NA,TRUE,Гебгута,"Гергута (Гегуда, Гегода)",Гебгуда,Гебгуда,42,28,15,49,42.190026,46.354817,Daghestan,NA,1754.84094238281,NA,not_kutan
4189,Gebguda,Гебгуда,Avar,NA,Avar,NA,TRUE,Гегута (Гегода),"Гергута (Гегуда, Гегода)",Гебгуда,Гебгуда,74,28,15,49,42.190026,46.354817,Daghestan,NA,1754.84094238281,NA,not_kutan
1991,Gedzhukh,Геджух,Dargwa,??,Dargwa,NA,TRUE,NA,NA,Геджух,Геджух,NA,NA,62,6829,42.1247,48.0661,Daghestan,NA,90.5159072875977,NA,not_kutan
9007,NA,Гекнаумахи,Dargwa,сев.,NA,NA,NA,NA,Хакнау,–,Гекнаумахи,NA,26,NA,0,NA,NA,NA,NA,NA,NA,NA
667,Gelli,Гели,Kumyk,NA,Kumyk,NA,TRUE,Гелли,Гелли,Гелла,Гели,2312,2390,1526,2796,42.7267,47.4014,Daghestan,NA,449.041198730469,NA,not_kutan
3909,NA,Гельбах,Avar,NA,NA,NA,NA,"Чир-юрт, слоб",Чир-Юрт (Гельбак),Чир-Юрт,Гельбах,853,820,586,1474,NA,NA,NA,NA,NA,NA,NA
4077,Gel'mets,Гельмец,Tsakhur,NA,Tsakhur,NA,TRUE,Гильмиц (Гельмиц),Гельмец (Гильмиц),Гелмец,Гельмец,358,368,403,611,41.62466,47.17889,Daghestan,NA,1745.84985351563,NA,not_kutan
3033,NA,Гельхен,Lezgian,NA,NA,NA,NA,Гельхан,Гельхан (Гяльхан),Гельхен,Гельхен,574,541,496,576,NA,NA,NA,NA,NA,NA,NA
8209,Genazokh,Геназох,NA,NA,Tsez,NA,NA,NA,NA,NA,Геназох,NA,NA,NA,3,42.23806,46.05306,Daghestan,NA,1756.38781738281,NA,not_kutan
4245,Gendukh,Гендух,Avar,NA,Avar,NA,TRUE,Гинлух,Гиндухъ (Индухъ),Гиндух,Гендух,81,85,28,284,42.13476,46.403084,Daghestan,NA,1751.52648925781,NA,not_kutan
4257,Genekolob,Генеколоб,Avar,NA,Avar,NA,TRUE,Гени-Коло,Гени-Коло (Геникулабъ),Гене-Коло,Генеколоб,215,229,236,750,41.916992,46.600199,Daghestan,NA,2052.53295898437,NA,not_kutan
77,Genichutl',Геничутль,Avar,NA,Avar,NA,TRUE,Геничутль,Геничутль,Гиничутль,Геничутль,426,457,261,315,42.56455,46.73959,Daghestan,NA,1772.45178222656,NA,not_kutan
4759,Geniyatl',Гениятль,Tsez,цезский,Tsez,NA,TRUE,Гениатль,Гениятль (Генитль),Гениатль,Гениятль,159,140,68,172,42.23828,46.035044,Daghestan,NA,1671.87939453125,NA,not_kutan
1227,Genta,Гента,Avar,NA,Avar,NA,TRUE,Гинта,Гинта (Хинда),Энта,Гента,547,521,559,583,42.37001,46.56099,Daghestan,NA,1702.54846191406,NA,not_kutan
4705,Genukh,Генух,Hinuq,NA,Hinuq,NA,TRUE,Гинух (Игинух),"Гинухъ (Гинухо, Инухъ)",Гинух,Генух,35,148,150,543,42.1764,45.98646,Daghestan,NA,1990.18469238281,NA,not_kutan
945,Gergebil',Гергебиль,Avar,NA,Avar,NA,TRUE,Гергебиль (Хергеб),Гергебиль (Хергебъ),Гергебель,Гергебиль,1193,1310,1489,5196,42.5047,47.0661,Daghestan,NA,729.883544921875,NA,not_kutan
729,NA,Гергиш-Тала Б.,Avar,NA,NA,NA,NA,NA,NA,Гергиш-Тала Б.,NA,NA,NA,54,NA,NA,NA,NA,NA,NA,NA,NA
731,NA,Гергиш-Тала М.,Kumyk,NA,NA,NA,NA,NA,NA,Гергиш-Тала М.,NA,NA,NA,21,NA,NA,NA,NA,NA,NA,NA,NA
4259,NA,Герель,Avar,NA,NA,NA,NA,Герель,Гозель (Гезель),Герель,Герель,117,104,122,395,NA,NA,NA,NA,NA,NA,NA
9000,Germenchik,Герменчик,Nogai,NA,Chechen,NA,FALSE,Тюрки-Ногай (Герменчик),Герменчик,–,NA,2556,2348,NA,NA,43.5403,46.7256,Daghestan,NA,1.30183970928192,NA,kutan
1423,NA,Герхмахи,Dargwa,сев.,NA,NA,NA,Гарх-Махи,Гарх-Махи (Герх-Махи),Герх-Махи,Герхмахи,584,600,611,2084,NA,NA,NA,NA,NA,NA,NA
1571,NA,Герхмахи (хутор),Dargwa,сев.,NA,NA,NA,NA,NA,Герх-Махи,NA,NA,NA,29,NA,NA,NA,NA,NA,NA,NA,NA
1211,NA,Гетана Тлура,Avar,NA,NA,NA,NA,NA,NA,Гетана Тлура,NA,NA,NA,24,NA,NA,NA,NA,NA,NA,NA,NA
8191,Gigatli-Urukh,Гигатли-Урух,NA,NA,Chamalal,NA,NA,NA,NA,NA,Гигатли-Урух,NA,NA,NA,267,42.590934,46.142589,Daghestan,NA,848.708618164063,NA,not_kutan
331,Gigatl',Гигатль,Chamalal,NA,Chamalal,NA,TRUE,Гигатли (Игатли),Гигатль (Гигатли),Гигатли,Гигатль,824,496,767,1349,42.58136,46.0964,Daghestan,NA,1782.37231445313,NA,not_kutan
1845,NA,Гигац,Dargwa,сев.,NA,NA,NA,NA,NA,Гигац,NA,NA,NA,20,NA,NA,NA,NA,NA,NA,NA,NA
295,Gigikh,Гигих,Chamalal,NA,Chamalal,NA,TRUE,NA,NA,Жилитль,Гигих,NA,NA,5,103,42.532529,46.101767,Daghestan,NA,1316.25646972656,NA,not_kutan
4139,Gidatli,Гидатли,Avar,NA,Avar,NA,TRUE,Гидатль,Гидатль,Гидатль,Гидатли,47,52,46,0,42.266327,46.374506,Daghestan,NA,1830.7548828125,NA,not_kutan
1151,Gidib,Гидиб,Avar,NA,Avar,NA,TRUE,Гидиб,Гидиб (Гадбал),Гедиб,Гидиб,139,145,316,61,42.22942,46.80621,Daghestan,NA,1776.49340820313,NA,not_kutan
947,Gilib,Гилиб,Avar,NA,Avar,NA,TRUE,Гилиб (Гили),Гиллиб (Гиллихи),Гилиб,Гилиб,462,463,438,642,42.1169,46.7761,Daghestan,NA,1775.21081542969,NA,not_kutan
3041,Gil'yar,Гильяр,Lezgian,NA,Lezgian,NA,TRUE,Гильяр,Гильяр,Гильяр,Гильяр,505,511,632,2023,41.559978,48.256089,Daghestan,NA,483.142242431641,NA,not_kutan
3101,NA,Гильяр-Казм.,Lezgian,NA,NA,NA,NA,NA,NA,Гильяр-Казм.,NA,NA,NA,67,NA,NA,NA,NA,NA,NA,NA,NA
341,Gimerso,Гимерсо,Bagvalal,NA,Bagvalal,NA,TRUE,Гимерси (Гиметлян),"Гимерси (Гимерсу, Химерсу, Гимцалъ)",Гимерсо,Гимерсо,304,253,285,211,42.561489,46.227545,Daghestan,NA,1678.71472167969,NA,not_kutan
75,NA,Гимры,Avar,NA,NA,NA,NA,Гимры (Гену),Гимры (Гену),Гимры,Гимры,1130,1125,1156,4651,NA,NA,NA,NA,NA,NA,NA
4125,Gimry,Гиндиб,Avar,NA,Avar,NA,TRUE,Гиндиб (Хинда),"Гиндибъ (Гендибъ, Хинда)",Гинда,Гиндиб,269,297,173,305,42.757219,46.838739,Daghestan,NA,464.00830078125,NA,not_kutan
821,Gindib,Гинта,Avar,NA,Avar,NA,TRUE,NA,NA,Гинта,NA,NA,NA,78,NA,42.11296,46.50397,Daghestan,NA,2013.51049804687,NA,not_kutan
821,Ginta,Гинта,Avar,NA,Dargwa,NA,FALSE,NA,NA,Гинта,NA,NA,NA,78,NA,42.2042,47.4186,Daghestan,NA,1588.97143554688,NA,not_kutan
1427,Gindib,Гинта,Dargwa,усиша-бутринский,Avar,NA,FALSE,Гинта (Хунтали),"Гинта (Хинта, Хунтали)",Гинта,Гинта,1233,1208,1073,1535,42.11296,46.50397,Daghestan,NA,2013.51049804687,NA,not_kutan
1427,Ginta,Гинта,Dargwa,усиша-бутринский,Dargwa,NA,TRUE,Гинта (Хунтали),"Гинта (Хинта, Хунтали)",Гинта,Гинта,1233,1208,1073,1535,42.2042,47.4186,Daghestan,NA,1588.97143554688,NA,not_kutan
2307,Gisik,Гисик,Tabasaran,NA,Tabasaran,NA,TRUE,Кисик верхний (Заан-Киник),"Кисик Верхний (Гасик Верхний, Заан Кисик)",Кисик Верх.,Гисик,67,73,82,293,41.94475,47.91451,Daghestan,NA,912.670776367188,Кисик Верхний (объед. в одно село?),not_kutan
2307,Gisik,Гисик,Tabasaran,NA,Tabasaran,NA,TRUE,Кисик верхний (Заан-Киник),"Кисик Верхний (Гасик Верхний, Заан Кисик)",Кисик Верх.,Гисик,67,73,82,293,41.94475,47.91451,Daghestan,NA,912.670776367188,Кисик Нижний (объед. в одно село?),not_kutan
2309,Gisik,Гисик,Tabasaran,NA,Tabasaran,NA,TRUE,Кисик нижний (Аскан-Кисик),"Кисик Нижний (Гасик Нижний, Аскан Кисик)",Кисик Нижн.,NA,95,100,85,NA,41.94475,47.91451,Daghestan,NA,912.670776367188,Кисик Верхний (объед. в одно село?),not_kutan
2309,Gisik,Гисик,Tabasaran,NA,Tabasaran,NA,TRUE,Кисик нижний (Аскан-Кисик),"Кисик Нижний (Гасик Нижний, Аскан Кисик)",Кисик Нижн.,NA,95,100,85,NA,41.94475,47.91451,Daghestan,NA,912.670776367188,Кисик Нижний (объед. в одно село?),not_kutan
1681,Giyagaramakhi,Гиягарамахи,Dargwa,сирхинско-тантынский,Dargwa,NA,TRUE,NA,Холагия-Махи,Хола-Гира-Махи,Гиягарамахи,NA,71,54,73,42.08381,47.37841,Daghestan,NA,2002.16955566406,NA,not_kutan
3901,Glavnyy-Kut,Главный Кут,Russian,NA,Lak,NA,FALSE,NA,NA,Главный Кут.,NA,NA,NA,102,NA,43.488244,47.443771,Daghestan,NA,-23,NA,kutan
865,NA,Гляндур,Kumyk,NA,NA,NA,NA,NA,NA,Гляндур,NA,NA,NA,49,NA,NA,NA,NA,NA,NA,NA,NA
3045,Goa,Гоа,Aghul,агульский собственно,Aghul,NA,TRUE,Гоа,"Гоа (Гуэ, Уга)",Гоа,Гоа,208,215,266,476,41.753585,47.703213,Daghestan,NA,1540.94604492188,NA,not_kutan
949,Goab,Гоаб,Avar,NA,Avar,NA,TRUE,Гоаб (Куа),"Гоаб (Гоа, Гоабго)",Гоаб,Гоаб,274,269,332,234,42.097185,46.738407,Daghestan,NA,2287.03784179687,NA,not_kutan
3645,NA,Говкра,Lak,NA,NA,NA,NA,Говкра (Гукул),"Говкра (Гукул, Гукарлю)",Говкра,Говкра,315,276,202,70,NA,NA,NA,NA,NA,NA,NA
4041,NA,Гогаз,Lezgian,NA,NA,NA,NA,Гогаз,Гогаз (Гогез),Гогах,Гогаз,533,508,366,482,NA,NA,NA,NA,NA,NA,NA
957,Gogotl',Гоготль,Avar,NA,Avar,NA,TRUE,Гоготль,Гоготль,Гогатль,Гоготль,450,482,436,466,42.45481,46.76547,Daghestan,NA,1407.38830566406,NA,not_kutan
343,Godoberi,Годобери,Godoberi,NA,Godoberi,NA,TRUE,Годобери (Геди),Годобери,Годебери Верх.,Годобери,887,1147,743,3050,42.6258,46.1189,Daghestan,NA,1438.76196289063,Ботлихский район,not_kutan
343,NA,Годобери,Godoberi,NA,NA,NA,NA,Годобери (Геди),Годобери,Годебери Верх.,Годобери,887,1147,743,3050,NA,NA,NA,NA,NA,Гунибский район,NA
91,NA,Гозолоколо,Avar,NA,NA,NA,NA,Гозоло-коло,Гозоло-Коло,Газолоколо,Гозолоколо,153,146,167,162,NA,NA,NA,NA,NA,NA,NA
1243,NA,Голони,Avar,NA,NA,NA,NA,NA,NA,Голони,NA,NA,NA,14,NA,NA,NA,NA,NA,NA,NA,NA
81,Golotl',Голотль,Avar,NA,Avar,NA,TRUE,Голотль,Голотль,Голотль,Голотль,714,735,700,1493,42.485962,46.735698,Daghestan,NA,803.010375976563,NA,not_kutan
959,Gonoda,Гонода,Avar,NA,Avar,NA,TRUE,Гонода,Гонода (Гунада),Гонода,Гонода,599,637,639,1415,42.4697,46.7892,Daghestan,NA,1281.41650390625,NA,not_kutan
83,Gonokh,Гонох,Avar,NA,Avar,NA,TRUE,Гонох,Гонохъ,Гонох,Гонох,174,172,196,373,42.56163,46.6896,Daghestan,NA,1709.26733398438,NA,not_kutan
1267,Gontlob,Гонтлоб,Avar,NA,Avar,NA,TRUE,Гонтлоб (Гонтло),Гонтлоб (Гонтло),Гонтлоб,Гонтлоб,64,66,59,33,42.280673,46.726468,Daghestan,NA,1838.49987792969,NA,not_kutan
1009,Goor,Гоор,Avar,NA,Avar,NA,TRUE,Гоор (Гори),Гооръ,Гоор,Гоор,932,896,813,809,42.43339,46.56927,Daghestan,NA,1554.23571777344,NA,not_kutan
1021,Goor-Khindakh,Гоор-Хиндах,Avar,NA,Avar,NA,TRUE,NA,NA,Хиндах,Гоор-Хиндах,NA,NA,103,267,42.449273,46.575312,Daghestan,NA,1042.85363769531,NA,not_kutan
1155,NA,Горт,Avar,NA,NA,NA,NA,NA,NA,Горт,NA,NA,NA,116,NA,NA,NA,NA,NA,NA,NA,NA
87,Gortkolo,Гортколо,Avar,NA,Avar,NA,TRUE,Гортль-коло,Гортль Коло,Гортколо,Гортколо,270,272,231,241,42.576655,46.63945,Daghestan,NA,1791.60681152344,NA,not_kutan
4261,Gortnob,Гортноб,Avar,NA,Avar,NA,TRUE,Гортль-Нуб,Гортль Нубъ (Гортнобъ),Гортиоб,Гортноб,82,87,73,197,41.962665,46.525604,Daghestan,NA,1970.58435058594,NA,not_kutan
3315,NA,Готаг-Казмаляр,Lezgian,NA,NA,NA,NA,NA,NA,Готаг-Казмаляр,NA,NA,NA,45,NA,NA,NA,NA,NA,NA,NA,NA
4695,NA,Готколи,Xvarshi,NA,NA,NA,NA,NA,NA,Готколи,NA,NA,NA,40,NA,NA,NA,NA,NA,NA,NA,NA
93,Gotsatl' Bol'shoy,Гоцатль Большой,Avar,NA,Avar,NA,TRUE,Гоцатль,"Гоцатль (Старый, Большой, Гортль Гоцатль, Малый, Новый Гоцатль, Таса Гоцатль)",Гоцатль Бол.,Гоцатль Большой,1028,1089,935,2189,42.51862,46.88262,Daghestan,NA,933.886352539063,NA,not_kutan
95,Gotsatl' Malyy,Гоцатль Малый,Avar,NA,Avar,NA,TRUE,NA,NA,Гоцатль Мал.,Гоцатль Малый,NA,NA,224,581,42.5041,46.88829,Daghestan,NA,863.846008300781,NA,not_kutan
123,Gotsob,Гоцоб,Avar,NA,Avar,NA,TRUE,Гецо (Хецо),Гоцо,Гоцо,Гоцоб,168,160,159,164,42.58963,46.86901,Daghestan,NA,1867.50061035156,NA,not_kutan
961,Gochada,Гочада,Avar,NA,Avar,NA,TRUE,Гачада (Хачада),Гачада,Гочада,Гочада,622,661,459,147,42.272626,46.765272,Daghestan,NA,1557.75549316406,NA,not_kutan
973,Gochob,Гочоб,Avar,NA,Avar,NA,TRUE,Гочоб,Гочоб,Гочоб,Гочоб,688,765,702,476,42.2375,46.6642,Daghestan,NA,2019.77404785156,NA,not_kutan
419,NA,Гоштада,Akhvakh,сев.-ахвах.,NA,NA,NA,NA,NA,Гоштада,NA,NA,NA,90,NA,NA,NA,NA,NA,NA,NA,NA
3933,NA,Гра,Lezgian,NA,NA,NA,NA,Гра,Гра,Гра,NA,472,440,406,NA,NA,NA,NA,NA,NA,NA,NA
3821,NA,Грознефтепровод,Avar,NA,NA,NA,NA,NA,NA,Грознефтепровод,NA,NA,NA,3,NA,NA,NA,NA,NA,NA,NA,NA
1639,NA,Губача-Галицы,Dargwa,сирхинско-тантынский,NA,NA,NA,NA,NA,Губача-Галицы,NA,NA,NA,48,NA,NA,NA,NA,NA,NA,NA,NA
3717,Gubden,Губден,Dargwa,сев.,Dargwa,NA,TRUE,Губден,Губдень,Губден,Губден,7111,6991,6102,8624,42.5658,47.5658,Daghestan,NA,592.828186035156,NA,not_kutan
3675,NA,Губечаул,Nogai,NA,NA,NA,NA,NA,NA,Губеч-Аул,NA,NA,NA,194,NA,NA,NA,NA,NA,NA,NA,NA
837,NA,Губур-Га,Kumyk,NA,NA,NA,NA,NA,NA,Губур-Га,NA,NA,NA,6,NA,NA,NA,NA,NA,NA,NA,NA
2271,Guvlig,Гувлиг,Tabasaran,NA,Tabasaran,NA,TRUE,Кувлиг,"Кувлиг (Кувлик, Куглиг)",Кувлик,Гувлиг,141,149,122,487,41.91824,47.85213,Daghestan,NA,1191.63659667969,NA,not_kutan
3409,NA,Гугнох-Казм.,Tabasaran,NA,NA,NA,NA,NA,NA,Гугнох-Казм.,NA,NA,NA,70,NA,NA,NA,NA,NA,NA,NA,NA
1457,Guzbaya,Гузбая,Dargwa,сирхинско-тантынский,Dargwa,NA,TRUE,NA,NA,Гузбая,Гузбая,NA,NA,38,11,42.04744,47.51385,Daghestan,NA,1796.40734863281,NA,not_kutan
3507,Guymi,Гуйми,Lak,NA,Lak,NA,TRUE,Гойми (Хуйми),"Гойми (Хуми, Гуймилю)",Гойми,Гуйми,396,448,311,70,42.230357,47.19589,Daghestan,NA,1659.33459472656,NA,not_kutan
1435,Guladty,Гуладты,Dargwa,сирхинско-тантынский,Dargwa,NA,TRUE,Голедты,Голадты,Гуладты,Гуладты,726,699,638,663,42.11523,47.45074,Daghestan,NA,1505.74609375,NA,not_kutan
1431,Guladtymakhi,Гуладтымахи,Dargwa,цуд.,Dargwa,NA,TRUE,Гулаты-Махи,Гуладты-Махи (Го-Махи),Гулатды-Махи,Гуладтымахи,507,491,472,417,42.34823,47.23927,Daghestan,NA,1542.89306640625,NA,not_kutan
1895,Gulebki,Гулебки,Dargwa,сирхинско-тантынский,Dargwa,NA,TRUE,Гулебки,Гулебки,Гулебки,Гулебки,259,255,209,386,42.11181,47.39688,Daghestan,NA,1574.15942382812,NA,not_kutan
1751,NA,Гуллай-Махи,Dargwa,цуд.,NA,NA,NA,NA,NA,Гуллай-Махи,NA,NA,NA,13,NA,NA,NA,NA,NA,NA,NA,NA
8091,Gulli,Гулли,NA,NA,Dargwa,NA,NA,NA,NA,NA,Гулли,NA,NA,NA,2058,42.22977,47.76214,Daghestan,NA,484.492248535156,NA,not_kutan
2327,Gul'dy,Гульды,Dargwa,кайт.,Dargwa,NA,TRUE,Гулди,"Гулди (Гюльди, Гулдили)",Гульди,Гульды,173,167,151,145,42.07113,47.68936,Daghestan,NA,1322.77770996094,NA,not_kutan
1847,NA,Гум-Махи,Dargwa,сев.,NA,NA,NA,NA,NA,Гум-Махи,NA,NA,NA,138,NA,NA,NA,NA,NA,NA,NA,NA
2265,Gumi,Гуми,Tabasaran,NA,Tabasaran,NA,TRUE,Куми (Гуми),Куми (Гуми),Куми,Гуми,248,256,251,261,41.894319,47.868304,Daghestan,NA,1087.39294433594,NA,not_kutan
1315,Gumramakhi,Гумрамахи,Dargwa,сев.,Dargwa,NA,TRUE,NA,NA,Гумра-Махи,Гумрамахи,NA,NA,151,642,42.25101,47.35105,Daghestan,NA,1384.79638671875,NA,not_kutan
2175,Gunakari,Гунакари,Dargwa,муиринский,Dargwa,NA,TRUE,Унахари (Гуна-кари),"Унухари (Гуна-Кари, Унукара, Унагкари)",Унакари,Гунакари,271,275,201,371,42.17776,47.69262,Daghestan,NA,1168.72839355469,NA,not_kutan
511,NA,Гундучи,Tindi,NA,NA,NA,NA,NA,NA,Ондочи,Гундучи,NA,NA,102,0,NA,NA,NA,NA,NA,NA,NA
4227,NA,Гунзиб,Hunzib,NA,NA,NA,NA,Родол,Родолъ (Энзеби),Родоль,Гунзиб,148,163,45,199,NA,NA,NA,NA,NA,NA,NA
1247,Gunib,Гуниб,Avar,NA,Avar,NA,TRUE,NA,NA,Гуниб,Гуниб,NA,NA,215,2271,42.388232,46.962258,Daghestan,NA,1214.30200195313,NA,not_kutan
1245,NA,Гуниб (лесная дача),Avar,NA,NA,NA,NA,NA,NA,Гуниб (лесная дача),NA,NA,NA,19,NA,NA,NA,NA,NA,NA,NA,NA
1683,Gunnamakhi,Гуннамахи,Dargwa,сирхинско-тантынский,Dargwa,NA,TRUE,NA,Кунна-Махи,Хуния-Махи,Гуннамахи,NA,65,27,59,42.04729,47.37328,Daghestan,NA,1704.51977539063,NA,not_kutan
963,Gunukh,Гунух,Avar,NA,Avar,NA,TRUE,Гонок,Гонохъ (Гонокъ),Гонох,Гунух,326,331,317,87,42.28043,46.76307,Daghestan,NA,1780.0693359375,NA,not_kutan
271,NA,Гунха,Andi,верхне-андийски,NA,NA,NA,Гунхо,"Гунхо (Гунха, Гунналъ)",Гунхо,Гунха,198,214,242,129,NA,NA,NA,NA,NA,NA,NA
3731,Gurbuki,Гурбуки,Dargwa,сев.,Dargwa,NA,TRUE,NA,NA,Гурбуки,Гурбуки,NA,NA,13,5321,42.611506,47.591942,Daghestan,NA,432.416229248047,NA,not_kutan
1713,Gurgumakhi,Гургумахи,Dargwa,цуд.,Dargwa,NA,TRUE,NA,Урку-Махи,Хургу,Гургумахи,NA,176,76,541,42.36056,47.19222,Daghestan,NA,1429.4306640625,NA,not_kutan
1317,NA,Гурдхи-Махи,Dargwa,сев.,NA,NA,NA,NA,NA,Гурдхи-Махи,NA,NA,NA,112,NA,NA,NA,NA,NA,NA,NA,NA
1319,NA,Гури-Махи,Dargwa,сев.,NA,NA,NA,NA,NA,Гури-Махи,NA,NA,NA,51,NA,NA,NA,NA,NA,NA,NA,NA
2293,Gurik,Гурик,Tabasaran,NA,Tabasaran,NA,TRUE,Курих (Курик),"Курих (Курик, Кюрак, Кюрык)",Курих,Гурик,358,266,412,804,41.962788,47.919474,Daghestan,NA,733.332458496094,NA,not_kutan
2253,NA,Гурмиша,Dargwa,кайт.,NA,NA,NA,Гюр-миша (Гур-миша),Гюрмиша (Гурмиша),Гурмиша,NA,85,82,106,NA,NA,NA,NA,NA,NA,NA,NA
4707,Gutatli,Гутатли,Tsez,цезский,Tsez,NA,TRUE,Гутох (Кутотль),NA,Гутатль,Гутатли,160,NA,132,363,42.207019,45.936713,Daghestan,NA,1922.36535644531,NA,not_kutan
4061,NA,Гутум,Lezgian,NA,NA,NA,NA,NA,NA,Гутум,NA,NA,NA,164,NA,NA,NA,NA,NA,NA,NA,NA
3499,NA,Гущи,Lak,NA,NA,NA,NA,Гуши (Хушими),"Гуши (Гушими, Гушилю)",Гущи,Гущи,209,222,193,65,NA,NA,NA,NA,NA,NA,NA
2297,NA,Гюгряг,Tabasaran,NA,NA,NA,NA,Кевраг (Гевраг),"Кевраг (Ковраг, Гевраг, Хюхрак)",Гюхраг,Гюгряг,155,152,145,268,NA,NA,NA,NA,NA,NA,NA
3407,Gyukhryag,Гюхряг,Tabasaran,NA,Tabasaran,NA,TRUE,Гогнак (Гугнак),"Гугнаг (Гегнах, Кюгнех)",Гугнох,Гюхряг,201,172,91,1456,41.854055,48.172785,Daghestan,NA,193.254852294922,NA,not_kutan
3807,NA,Д.О. Манас,Russian,NA,NA,NA,NA,NA,NA,Манас,NA,NA,NA,37,NA,NA,NA,NA,NA,NA,NA,NA
3211,NA,Давуд-Келе,Lezgian,NA,NA,NA,NA,NA,NA,Давуд-Келе,NA,NA,NA,48,NA,NA,NA,NA,NA,NA,NA,NA
1167,Dagbash,Дагбаш,Avar,NA,Avar,NA,TRUE,Ратлу-Ахвах (Ахуак),"Ахвах (Ахуакъ, Ратлу-Ахвакъ)",Ахвах,Дагбаш,426,415,441,264,42.380347,46.351961,Daghestan,NA,2015.060546875,NA,not_kutan
7,NA,Дагестанские Огни,Russian,NA,NA,NA,NA,NA,NA,Дагестанские Огни,NA,NA,NA,289,NA,NA,NA,NA,NA,NA,?город,NA
7,NA,Дагестанские Огни,Russian,NA,NA,NA,NA,NA,NA,Дагестанские Огни,NA,NA,NA,289,NA,NA,NA,NA,NA,NA,"?заводской поселок, впоследствии ставший городом",NA
8220,NA,Дагестанские Огни,NA,NA,NA,NA,NA,NA,NA,NA,Дагестанские Огни,NA,NA,NA,27926,NA,NA,NA,NA,NA,?город,NA
8220,NA,Дагестанские Огни,NA,NA,NA,NA,NA,NA,NA,NA,Дагестанские Огни,NA,NA,NA,27926,NA,NA,NA,NA,NA,"?заводской поселок, впоследствии ставший городом",NA
2299,Dagni,Дагни,Tabasaran,NA,Tabasaran,NA,TRUE,Дагни,Дагни (Дагуна),Дагни,Дагни,160,160,166,313,41.931594,47.911846,Daghestan,NA,835.614501953125,NA,not_kutan
1067,Dadulazda,Дадулазда,Avar,NA,Avar,NA,TRUE,NA,NA,Дабулада,Дадулазда,NA,NA,66,26,42.4189,46.80373,Daghestan,NA,1259.15344238281,NA,not_kutan
2329,Daknisa,Дакниса,Dargwa,кайт.,Dargwa,NA,TRUE,Дахниса (Дагиниса),"Дахниса (Дагниса, Дагнисали)",Дакнисе,Дакниса,200,201,208,436,42.08758,47.72711,Daghestan,NA,876.819580078125,NA,not_kutan
421,NA,Дамиг,Akhvakh,сев.-ахвах.,NA,NA,NA,NA,NA,Дамиг,NA,NA,NA,76,NA,NA,NA,NA,NA,NA,NA,NA
1545,Damkulakada,Дамкулакада,Dargwa,сев.,Dargwa,NA,TRUE,NA,Дашкалакада,Дамкула-Кода,Дамкулакада,NA,143,97,48,42.430252,47.467675,Daghestan,NA,1224.33154296875,NA,not_kutan
359,Danukh,Данух,Avar,NA,Chechen,NA,FALSE,Данух,Данухъ,Данух,Данух,274,220,390,810,42.84282,46.6275,Daghestan,NA,1691.798828125,NA,not_kutan
1159,Darada,Дарада,Avar,NA,Avar,NA,TRUE,NA,NA,Дарада,Дарада,NA,NA,216,217,42.465606,46.936573,Daghestan,NA,1513.75939941406,NA,not_kutan
2005,Darvag,Дарваг,North Azerbaijani,NA,North Azerbaijani,NA,TRUE,Дарваг,Дарваг,Дарваг,Дарваг,961,968,1220,2889,42.022285,48.065912,Daghestan,NA,355.026885986328,NA,not_kutan
3141,NA,Дардаркент,Lezgian,NA,NA,NA,NA,Дардар-кент (Дардара-хюр),Дардар-Кент (Дардара-хюр),Дардар-Кент,Дардаркент,288,258,196,367,NA,NA,NA,NA,NA,NA,NA
3121,Darkush-Kazmalyar,Даркушказмаляр,Lezgian,NA,Lezgian,NA,TRUE,NA,NA,Даркуш-Казм.,Даркуш-Казмаляр,NA,NA,132,2805,41.80608,48.38985,Daghestan,NA,96.4831390380859,NA,not_kutan
139,Datuna,Датуна,Avar,NA,Avar,NA,TRUE,"Датуната (Датун, Малиданаха)","Датунъ, Датуната, Малиданака",Датун,Датуна,67,80,74,179,42.47357,46.64364,Daghestan,NA,856.761596679688,NA,not_kutan
1783,NA,Дауда,Dargwa,цуд.,NA,NA,NA,NA,NA,Дауда,NA,NA,NA,24,NA,NA,NA,NA,NA,NA,NA,NA
3779,Dakhadaevka,Дахадаевка,Kumyk,NA,Kumyk,NA,TRUE,NA,NA,Ахундовка,Дахадаевка,NA,NA,166,284,43.1069,47.44029,Daghestan,NA,-24.0018711090088,NA,not_kutan
1439,NA,Дегва,Dargwa,сев.,NA,NA,NA,Дегва (Дигва),Дегва (Дигва),Дегва,Дегва,411,132,540,821,NA,NA,NA,NA,NA,NA,NA
1441,Deybuk,Дейбук,Dargwa,муиринский,Dargwa,NA,TRUE,Дийбук (Дубук),"Дийбукъ (Дибукъ, Дубукъ)",Дейбук,Дейбук,931,980,991,434,42.20532,47.51996,Daghestan,NA,1538.88464355469,NA,not_kutan
2007,Delichoban,Деличобан,North Azerbaijani,NA,North Azerbaijani,NA,TRUE,Деличобан,Деличобан (Деличибок),Деличубан,Деличобан,521,487,422,2216,42.19877,48.09467,Daghestan,NA,19.7854690551758,NA,not_kutan
5,NA,Дербент,North Azerbaijani,NA,NA,NA,NA,NA,NA,Дербент,Дербент,NA,NA,7831,118599,NA,NA,NA,NA,NA,NA,NA
3951,Dzhaba,Джаба,Lezgian,NA,Lezgian,NA,TRUE,Джаба (Чапе),Джаба (Чапе),Джаба,Джаба,1504,1792,806,703,41.424175,47.775397,Daghestan,NA,1738.31530761719,NA,not_kutan
2149,Dzhavankent,Джаванкент,Kumyk,NA,Kumyk,NA,TRUE,Джаван-кент,Джаван-Кент,Джаван-Кент,Джаванкент,1168,1177,747,1013,42.26265,47.80983,Daghestan,NA,358.448669433594,NA,not_kutan
2155,Dzhavgat,Джавгат,Dargwa,кайт.,Dargwa,NA,TRUE,Джовгат (Джаугат),"Джавгат (Джаугат, Джевгат)",Джавгат,Джавгат,466,470,579,2185,42.0506,47.9375,Daghestan,NA,365.503295898437,NA,not_kutan
17,Dzhalaturi,Джалатури,Avar,NA,Avar,NA,TRUE,Джалатлури (Жалатлуру),Джалатрури (Жалатруи),Джалатлури,Джалатури,169,190,160,82,42.631847,46.567028,Daghestan,NA,1732.36254882812,NA,not_kutan
2021,Dzhalgan,Джалган,North Azerbaijani,NA,North Azerbaijani,NA,TRUE,Джалга,Джалган (Джалга),Джалган,Джалган,271,272,442,724,42.02454,48.26224,Daghestan,NA,527.816833496094,NA,not_kutan
9031,NA,Джанга-Кунт,Dargwa,сев.,NA,NA,NA,NA,Джанга-Кунт,NA,NA,NA,162,NA,NA,NA,NA,NA,NA,NA,NA,NA
1445,Dzhangamakhi,Джангамахи,Dargwa,сев.,Dargwa,NA,TRUE,Джанга-Махи,Джанга-Махи (Халакат),Джанга-Махи,Джангамахи,783,259,301,698,42.44335,47.38111,Daghestan,NA,1295.265625,NA,not_kutan
3411,NA,Джараг,тат+,NA,NA,NA,NA,Джараг (Джераг),"Джарах (Джерах, Джара)",Джараг,NA,291,329,10,NA,NA,NA,NA,NA,NA,NA,NA
1321,NA,Джарон-Махи,Dargwa,сев.,NA,NA,NA,NA,NA,Джарон-Махи,NA,NA,NA,55,NA,NA,NA,NA,NA,NA,NA,NA
2023,Dzhemikent,Джемикент,North Azerbaijani,NA,North Azerbaijani,NA,TRUE,Джеми-кент,Джими-Кент (Джеми-Кент),Джемикент,Джемикент,687,647,655,2555,42.23575,48.04114,Daghestan,NA,33.7446327209473,NA,not_kutan
3329,Dzhepel',Джепель,Lezgian,NA,Lezgian,NA,TRUE,Джебель (Ширванар),"Джабель (Джебель, Джабек, Ширванар)",Джабель,Джепель,123,106,195,634,41.54977,48.21947,Daghestan,NA,543.11279296875,NA,not_kutan
2153,Dzhibakhni,Джибахни,Dargwa,кайт.,Dargwa,NA,TRUE,Джибагни,"Джибагни (Джебагни, Джабагни)",Джибахни,Джибахни,735,740,567,1200,42.06051,47.90847,Daghestan,NA,409.109252929688,NA,not_kutan
3957,NA,Джиг-Джиг,Lezgian,NA,NA,NA,NA,Джиг-Джиг (Чекисик),Джиг-Джиг (Чекисик),Джиг-Джиг,NA,437,465,217,NA,NA,NA,NA,NA,NA,NA,NA
2255,Dzhigiya,Джигия,Dargwa,кайт.,Dargwa,NA,TRUE,Джигiа,Джигиа (Джигия),Джигия,Джигия,116,120,129,289,42.06139,47.79597,Daghestan,NA,621.141418457031,NA,not_kutan
4013,Dzhilikhur,Джилихур,Lezgian,NA,Rutul,NA,FALSE,NA,NA,Жилихюр,Джилихур,NA,NA,251,742,41.65545,47.26768,Daghestan,NA,1590.79418945313,NA,not_kutan
9015,NA,Джимджимах,Tsakhur,NA,NA,NA,NA,Джимджимаг,Джимджимах (Джимджимаг),–,NA,93,135,NA,NA,NA,NA,NA,NA,NA,NA,NA
2217,Dzhinabi,Джинаби,Dargwa,кайт.,Dargwa,NA,TRUE,Джинаби,Джинаби (Дженаби),Джинаби,Джинаби,385,342,338,706,42.070864,47.860318,Daghestan,NA,613.606872558594,NA,not_kutan
4005,Dzhinykh,Джиных,Tsakhur,NA,Tsakhur,NA,TRUE,Джиних (Джинег),Джиних (Джинег),Жиних,Джиных,537,532,262,277,41.67245,47.04479,Daghestan,NA,1797.17175292969,NA,not_kutan
2331,Dzhirabachi,Джирабачи,Dargwa,кайт.,Dargwa,NA,TRUE,Джинабаджи (Джирабаджи),"Джинабаджи (Джирабаджи, Джирибачни)",Джирабажи,Джирабачи,470,470,451,531,42.09091,47.73513,Daghestan,NA,939.80908203125,NA,not_kutan
2429,Dzhugdil',Джугдиль,Tabasaran,NA,Tabasaran,NA,TRUE,Джугдиль (Джогдиль),Джугдиль (Джогдиль),Джуглил,Джугдиль,272,271,325,917,41.919222,47.979531,Daghestan,NA,798.133666992188,NA,not_kutan
8018,NA,Джугут,NA,NA,NA,NA,NA,NA,NA,NA,Джугут,NA,NA,NA,406,NA,NA,NA,NA,NA,NA,NA
3303,Dzhuli,Джули,Tabasaran,NA,Tabasaran,NA,TRUE,Джули (Жули),Джули (Усули),Джули,Джули,358,390,386,631,41.8822,47.85399,Daghestan,NA,1153.94470214844,NA,not_kutan
2301,Dzhul'dzhag,Джульджаг,Tabasaran,NA,Tabasaran,NA,TRUE,Джоруджаг (Джолджаг),Джорджал (Джулдаг),Джулджак,Джульджаг,180,180,163,715,41.95485,47.88933,Daghestan,NA,998.5048828125,NA,not_kutan
2303,Dzhul'dzhinif,Джульджиниф,Tabasaran,NA,Tabasaran,NA,TRUE,Джуруджинив (Джуржунив),"Джурджиниф (Двурджинив, Джулджиниф)",Джулжиниф,Джульджиниф,70,62,68,197,41.957235,47.912939,Daghestan,NA,765.842346191406,NA,not_kutan
2379,Dzhurmachi,Джурмачи,Dargwa,муиринский,Dargwa,NA,TRUE,Журмачи (Зурмачи),"Журмачи (Зурмачи, Гурмачи)",Журмачи,Джурмачи,223,231,256,152,42.09049,47.69572,Daghestan,NA,951.664489746094,NA,not_kutan
1451,Dzilebki,Дзилебки,Dargwa,сирхинско-тантынский,Dargwa,NA,TRUE,Дзилебки,Дзилебки,Дзилебки,Дзилебки,406,398,481,714,42.04989,47.55693,Daghestan,NA,1645.35473632813,NA,not_kutan
2375,Dibgalik,Дибгалик,Dargwa,муиринский,Dargwa,NA,TRUE,Дибгелик,"Дибгалик (Дибгелик, Деблюк, Дебгали, Девгали)",Дибгалик,Дибгалик,359,367,357,557,42.120363,47.652521,Daghestan,NA,1065.45202636719,NA,not_kutan
2165,Dibgashi,Дибгаши,Dargwa,муиринский,Dargwa,NA,TRUE,Дибга-ша (Динга-ша),"Дибга-ша (Дивга-ша, Девгашили)",Дибгаша,Дибгаши,532,527,450,1130,42.1617,47.6944,Daghestan,NA,1104.78015136719,NA,not_kutan
1693,Dingo,Динго,Dargwa,цуд.,Dargwa,NA,TRUE,NA,NA,Денгубе,Динго,NA,NA,22,0,42.35347,47.18138,Daghestan,NA,1049.79821777344,NA,not_kutan
1481,Ditunshimakhi,Дитуншимахи,Dargwa,сев.,Dargwa,NA,TRUE,Детунша (Дитунша),Детунша (Дитунша),Дитунши-Махи,Дитуншимахи,133,133,152,486,42.381665,47.289692,Daghestan,NA,1410.48376464844,NA,not_kutan
677,Dorgeli,Доргели,Kumyk,NA,Kumyk,NA,TRUE,Дургали (Дургели),Дургели (Дургали),Дургели,Доргели,4291,4620,3130,5781,42.66556,47.29667,Daghestan,NA,667.396423339844,NA,not_kutan
951,Doronub,Доронуб,Avar,NA,Avar,NA,TRUE,Дарану (Дарануб),Дарануб,Доронуб,Доронуб,123,131,111,150,42.124689,46.809427,Daghestan,NA,1876.57202148438,NA,not_kutan
8095,Druzhba,Дружба,NA,NA,Dargwa,NA,NA,NA,NA,NA,Дружба,NA,NA,NA,3675,42.2419,48.0042,Daghestan,NA,65.0423812866211,42.2419 48.0042 Dargwa,not_kutan
8095,Druzhba,Дружба,NA,NA,Chechen,NA,NA,NA,NA,NA,Дружба,NA,NA,NA,3675,43.403333,45.6575,Chechnya,NA,187.238922119141,42.2419 48.0042 Dargwa,not_kutan
3047,NA,Друштул,Aghul,агульский собственно,NA,NA,NA,Друштал (Дурушта),"Друштул (Дурушта, Дуруштул, Траталык)",Друштул,NA,362,371,372,NA,NA,NA,NA,NA,NA,NA,NA
1455,Duakar,Дуакар,Dargwa,сирхинско-тантынский,Dargwa,NA,TRUE,Дуаккар,"Дуаккар (Диакхор, Дуук)",Дуакар,Дуакар,276,263,291,248,42.064159,47.460081,Daghestan,NA,1637.55126953125,NA,not_kutan
9028,NA,Дуаршин,Dargwa,сев.,NA,NA,NA,NA,Дуаршин,NA,NA,NA,82,NA,NA,NA,NA,NA,NA,NA,NA,NA
1323,Dubrimakhi,Дубримахи,Dargwa,сев.,Dargwa,NA,TRUE,Дубри-Махи,Дубри-Махи,Дубри-Махи,Дубримахи,943,999,256,692,42.274418,47.285133,Daghestan,NA,1503.74438476563,NA,not_kutan
3057,Duldug,Дулдуг,Aghul,агульский собственно,Aghul,NA,TRUE,Дулдуг,Дулдуг (Дюльдух),Дулдуг,Дулдуг,371,386,380,544,41.76833,47.67438,Daghestan,NA,1560.97912597656,NA,not_kutan
705,Durangi,Дуранги,Avar,NA,Avar,NA,TRUE,Дуранги,Дуранги,Дуранги,Дуранги,329,342,345,553,42.63571,47.22366,Daghestan,NA,1040.05541992188,NA,not_kutan
2257,Duregi,Дуреги,Dargwa,кайт.,Dargwa,NA,TRUE,Дурья,Дурья,Дуреги,Дуреги,287,279,335,270,42.03585,47.76541,Daghestan,NA,1062.16467285156,NA,not_kutan
887,NA,Дуржул,Avar,NA,NA,NA,NA,NA,NA,Дуржул,NA,NA,NA,113,NA,NA,NA,NA,NA,NA,NA,NA
977,Dusrakh,Дусрах,Avar,NA,Avar,NA,TRUE,Дусрек (Диси),Дусрек (Риси),Дусрак,Дусрах,333,333,315,280,42.1275,46.8792,Daghestan,NA,1872.45385742188,NA,not_kutan
3493,NA,Дучи,Lak,NA,NA,NA,NA,Дучи (Дучими),Дучи (Дучими),Дучи,NA,308,341,264,NA,NA,NA,NA,NA,NA,NA,NA
2177,Dyubek,Дюбек,Tabasaran,NA,Tabasaran,NA,TRUE,Дювек,Дювек,Дювек,Дюбек,878,818,1038,1893,42.0208,47.969528,Daghestan,NA,450.744720458984,NA,not_kutan
8064,Dyuzler,Дюзлер,NA,NA,Tabasaran,NA,NA,NA,NA,NA,Дюзлер,NA,NA,NA,562,41.93583,48.265,Daghestan,NA,68.0397644042969,NA,not_kutan
2341,NA,Евр. слободка,Muslim Tat,NA,NA,NA,NA,NA,NA,Евр. слободка,NA,NA,NA,306,NA,NA,NA,NA,NA,NA,NA,NA
2415,NA,Екраг,Tabasaran,NA,NA,NA,NA,Екраг,Ерках (Еркаг),Екрах,Екраг,128,141,160,156,NA,NA,NA,NA,NA,NA,NA
2305,NA,Ергюняг,Tabasaran,NA,NA,NA,NA,Ергюнаг,"Ергюнаг (Ергунаг, Юргнах)",Ерунаг,Ергюняг,62,59,64,60,NA,NA,NA,NA,NA,NA,NA
2185,NA,Ерси,Tabasaran,NA,NA,NA,NA,Ерси,Ерси,Ерси,Ерси,735,750,1190,1805,NA,NA,NA,NA,NA,NA,NA
3865,NA,Ж. д. буд. 949 клм.,Russian,NA,NA,NA,NA,NA,NA,Ж. д. буд. 949 клм.,NA,NA,NA,12,NA,NA,NA,NA,NA,NA,NA,NA
3863,NA,Ж. д. буд. 959 клм.,Dargwa,??,NA,NA,NA,NA,NA,Ж. д. буд. 959 клм.,NA,NA,NA,11,NA,NA,NA,NA,NA,NA,NA,NA
3799,NA,Ж. д. будка 969 к.,Lak,NA,NA,NA,NA,NA,NA,Ж. д. будка 969 к.,NA,NA,NA,9,NA,NA,NA,NA,NA,NA,NA,NA
2025,NA,Ж. д. будка 973 вер.,Russian,NA,NA,NA,NA,NA,NA,Ж. д. будка 973 вер.,NA,NA,NA,13,NA,NA,NA,NA,NA,NA,NA,NA
3797,NA,Ж. д. будка 978 к.,Kumyk,NA,NA,NA,NA,NA,NA,Ж. д. будка 978 к.,NA,NA,NA,4,NA,NA,NA,NA,NA,NA,NA,NA
815,NA,Ж. д. будка на 18-й версте,Kumyk,NA,NA,NA,NA,NA,NA,Ж. д. будка на 18-й версте,NA,NA,NA,4,NA,NA,NA,NA,NA,NA,NA,NA
3801,NA,Ж. д. казарма на 932 клм.,Dargwa,сев.,NA,NA,NA,NA,NA,Ж. д. казарма на 932 клм.,NA,NA,NA,11,NA,NA,NA,NA,NA,NA,NA,NA
3849,NA,Ж. д. казармы 882 клм.,Kumyk,NA,NA,NA,NA,NA,NA,Ж. д. казармы 882 клм.,NA,NA,NA,20,NA,NA,NA,NA,NA,NA,NA,NA
4167,Zhazhada,Жажада,Avar,NA,Avar,NA,TRUE,Жажада,Жажада,Жажада,Жажада,76,81,58,199,42.197157,46.424903,Daghestan,NA,1892.42785644531,NA,not_kutan
1561,Zhamsory,Жамсоры,Dargwa,сев.,Dargwa,NA,TRUE,NA,Чамсарала,Чамсаре,Жамсоры,NA,42,73,0,42.382089,47.462508,Daghestan,NA,1442.42224121094,NA,not_kutan
1849,NA,Завгуреланлала,Dargwa,сев.,NA,NA,NA,NA,NA,Завгуреланлала,NA,NA,NA,62,NA,NA,NA,NA,NA,NA,NA,NA
3061,Zaza,Заза,Lezgian,NA,Lezgian,NA,TRUE,Заза,Заза (Дзаза),Заза,Заза,494,500,470,37,41.77734,48.04628,Daghestan,NA,752.088684082031,NA,not_kutan
199,Zaib,Заиб,Avar,NA,Avar,NA,TRUE,NA,NA,Заи,Заиб,NA,NA,56,226,42.489364,46.707472,Daghestan,NA,799.366271972656,NA,not_kutan
131,Zanata,Заната,Avar,NA,Avar,NA,TRUE,Заната,Заната,Заната,Заната,200,202,159,198,42.485146,46.552771,Daghestan,NA,1602.92211914063,NA,not_kutan
1255,NA,Зевер,Avar,NA,NA,NA,NA,NA,NA,Зевер,NA,NA,NA,184,NA,NA,NA,NA,NA,NA,NA,NA
3761,NA,Зели-Кака,Kumyk,NA,NA,NA,NA,NA,NA,Зелекака,NA,NA,NA,176,NA,NA,NA,NA,NA,NA,NA,NA
3911,NA,Зем. Артель Батраков,Avar,NA,NA,NA,NA,NA,NA,Зем. Артель Батраков,NA,NA,NA,68,NA,NA,NA,NA,NA,NA,NA,NA
4709,Zekhida,Зехида,Tsez,цезский,Tsez,NA,TRUE,Зехиди,"Захида (Зехеди, Захиды)",Зихида,Зехида,103,105,82,502,42.19594,45.94664,Daghestan,NA,1861.92724609375,NA,not_kutan
367,NA,Зибиру,Botlikh,NA,NA,NA,NA,NA,NA,Зибиру,NA,NA,NA,30,NA,NA,NA,NA,NA,NA,NA,NA
361,Zibirkhali,Зибирхали,Godoberi,NA,Godoberi,NA,TRUE,Зуберхули,Зибирхали (Зибихули),Зиберкали,Зибирхали,285,279,147,64,42.66833,46.07194,Daghestan,NA,1791.06030273438,NA,not_kutan
2031,Zid'yan,Зидьян,North Azerbaijani,NA,North Azerbaijani,NA,TRUE,Задiан,Задиан (Зидиан),Зидьян,Зидьян,533,532,555,150,42.050776,48.142558,Daghestan,NA,481.721801757813,NA,not_kutan
2037,Zid'yan-Kazmalyar,Зидьян-Казмаляр,North Azerbaijani,NA,North Azerbaijani,NA,TRUE,NA,NA,Зидьян Казмалар,Зидьян-Казмаляр,NA,NA,330,977,42.07957,48.15655,Daghestan,NA,203.86637878418,NA,not_kutan
3071,NA,Зизик,Lezgian,NA,NA,NA,NA,Зизик,"Зизик (Зезик, Дере-Кам)",Зизик,Зизик,508,494,489,1235,NA,NA,NA,NA,NA,NA,NA
273,Zilo,Зило,Andi,верхне-андийски,Andi,NA,TRUE,Зило,"Зило (Зилю, Зилюръ, Зилудиралъ)",Зило,Зило,569,469,510,1220,42.731394,46.319223,Daghestan,NA,1202.365234375,NA,not_kutan
2193,Zil',Зиль,Tabasaran,NA,North Azerbaijani,NA,FALSE,Зиль,Зиль,Зиль,Зиль,346,345,433,454,41.99616,48.03356,Daghestan,NA,587.220520019531,NA,not_kutan
2187,Zil'bachi,Зильбачи,Dargwa,муиринский,Dargwa,NA,TRUE,Зильвачи,"Зильбачи (Зильмачи, Зильвачи)",Зильбачи,Зильбачи,325,339,397,941,42.139973,47.717838,Daghestan,NA,1311.98291015625,NA,not_kutan
3079,Zil'dik,Зильдик,Tabasaran,NA,Tabasaran,NA,TRUE,"Зильдик (Сильдик, Чичик)","Зильдик (Цыльдик, С-, Чичик)",Зильдик,Зильдик,475,446,512,585,41.81292,47.98958,Daghestan,NA,1084.77709960938,NA,not_kutan
1881,Zil'mukmakhi,Зильмукмахи,Dargwa,усиша-бутринский,Dargwa,NA,TRUE,Зилмук,Зальмук-Махи,Зелмук-Махи,Зильмукмахи,193,223,244,328,42.28483,47.3958,Daghestan,NA,1409.150390625,NA,not_kutan
4233,NA,зим. Ахадиб (?),Avar,NA,NA,NA,NA,NA,NA,Ахада,NA,NA,NA,21,NA,NA,NA,NA,NA,NA,NA,NA
389,NA,Зиндулла,Karata,карат.,NA,NA,NA,NA,NA,Зиндулла,NA,NA,NA,14,NA,NA,NA,NA,NA,NA,NA,NA
55,Zirani,Зирани,Avar,NA,Avar,NA,TRUE,Зирани,"Зирани, Зираны",Зирани,Зирани,154,160,188,65,42.61797,46.94436,Daghestan,NA,543.17236328125,NA,not_kutan
3081,NA,Зирдаг,Tabasaran,NA,NA,NA,NA,Зирдаг (Зирджаг),"Зирдаг (Зирджаг, Заржак)",Зирдак,NA,319,314,290,NA,NA,NA,NA,NA,NA,NA,NA
1231,Ziurib,Зиуриб,Avar,NA,Avar,NA,TRUE,Зиури,Зиури,Зиуриб,Зиуриб,226,239,232,326,42.41789,46.705088,Daghestan,NA,1846.06469726563,NA,not_kutan
3953,NA,Зрых,Lezgian,NA,NA,NA,NA,Зрых (Цириг),"Зрых (Зирик, Цирих)",Зрых,Зрых,768,760,843,1838,NA,NA,NA,NA,NA,NA,NA
2377,Zubanchi,Зубанчи,Dargwa,муиринский,Dargwa,NA,TRUE,Зубанчи (Зуванчи),"Зубанчи (Зуванчи, Аубанчи)",Зубанчи,Зубанчи,616,622,664,1639,42.13309,47.70417,Daghestan,NA,1077.52282714844,NA,not_kutan
1547,NA,Зурилаудимахи,Dargwa,сев.,NA,NA,NA,NA,Зуриула,Зурилну,Зурилаудимахи,NA,83,143,461,NA,NA,NA,NA,NA,NA,NA
3025,Zukhrabkent,Зухрабкент,Lezgian,NA,Lezgian,NA,TRUE,Зограб-кент (Зограба-хюр),Зограб Кент (Зограб-Хюр),Зуграб-Кент,Зухрабкент,469,452,396,250,41.56687,48.1529,Daghestan,NA,1066.8203125,NA,not_kutan
4605,Ibragimotar,Ибрагимотар,NA,NA,Avar,NA,NA,NA,NA,NA,Ибрагимотар,NA,NA,NA,1232,43.56491,46.46879,Daghestan,NA,8.99989604949951,NA,kutan
1069,Ivaylazda,Ивайлазда,Avar,NA,Avar,NA,TRUE,NA,NA,Иваназда,Ивайлазда,NA,NA,32,73,42.42,46.79917,Daghestan,NA,1323.56298828125,NA,not_kutan
99,Igali,Игали,Avar,NA,Avar,NA,TRUE,Игали,Игали (Ихали),Игали,Игали,1138,1135,852,2558,42.7181,46.5811,Daghestan,NA,623.298461914063,NA,not_kutan
4069,Igrakh,Играх,Lezgian,NA,Lezgian,NA,TRUE,Икрах (Гирак),Икрах (Гирак),Икрах,Играх,158,159,182,2,41.5525,47.52831,Daghestan,NA,1700.18786621094,NA,not_kutan
281,NA,Идходатль,Chamalal,NA,NA,NA,NA,NA,NA,Идходатль,NA,NA,NA,13,NA,NA,NA,NA,NA,NA,NA,NA
379,Izano,Изано,Akhvakh,сев.-ахвах.,Akhvakh,NA,TRUE,Изани (Изаниб),Изани (Изанибъ),Изани,Изано,412,433,318,1211,42.52735,46.40389,Daghestan,NA,1823.7587890625,NA,not_kutan
3773,NA,Избербаш,Kumyk,NA,NA,NA,NA,NA,NA,Изберг,Избербаш,NA,NA,7,55279,NA,NA,NA,NA,NA,NA,NA
4143,Izta,Изта,Avar,NA,Avar,NA,TRUE,Изата (Изеда),"Изата (Издата, Изеда, Эзета)",Изата,Изта,34,39,17,17,42.30889,46.35667,Daghestan,NA,2081.75659179687,NA,not_kutan
3085,Ikra,Икра,Lezgian,NA,Lezgian,NA,TRUE,"Икра (Кири, Крар)","Икра (Кири, Крар)",Икра,Икра,1343,1085,1288,1620,41.5633,48.0094,Daghestan,NA,996.627868652344,NA,not_kutan
8058,Imeni Michurina,Имени Мичурина,NA,NA,North Azerbaijani,NA,NA,NA,NA,NA,Имени Мичурина,NA,NA,NA,878,42.17695,48.19867,Daghestan,NA,-14.7653760910034,NA,not_kutan
1295,NA,Имхила Махи,Dargwa,сев.,NA,NA,NA,NA,NA,Имхила Махи,NA,NA,NA,33,NA,NA,NA,NA,NA,NA,NA,NA
383,Ingerdakh,Ингердах,Avar,NA,Avar,NA,TRUE,Ингердах,Ингердахъ (Ингурдахъ),Ингердах,Ингердах,456,490,531,1065,42.58926,46.398373,Daghestan,NA,1881.91979980469,NA,not_kutan
385,Ingishi,Ингиши,Avar,NA,Avar,NA,TRUE,Ингиш,Ингишь (Ингишу),Ингиши,Ингиши,414,454,455,839,42.77477,46.54264,Daghestan,NA,1533.03540039063,NA,not_kutan
8005,Indira,Индира,NA,NA,Karata,NA,NA,NA,NA,NA,Индира,NA,NA,NA,429,43.495013,46.80715,Daghestan,NA,-6,NA,kutan
1325,Inzimakhi,Инзимахи,Dargwa,сев.,Dargwa,NA,TRUE,NA,NA,Инзи-Махи,Инзимахи,NA,NA,145,1382,42.27238,47.35613,Daghestan,NA,1409.185546875,NA,not_kutan
3467,Inisha,Иниша,Lak,NA,Lak,NA,TRUE,Иниши,"Иниши (Иниша, Инишалю)",Иниша,Иниша,167,163,114,131,42.15031,47.20492,Daghestan,NA,1710.07116699219,NA,not_kutan
209,Inkvalita,Инквалита,Avar,NA,Avar,NA,TRUE,Инкоалита,Инкоалита (Инколита),Инколита,Инквалита,173,176,135,46,42.69936,46.68833,Daghestan,NA,1519.19567871094,NA,not_kutan
1695,Inkuchimakhi,Инкучимахи,Dargwa,цуд.,Dargwa,NA,TRUE,NA,Инкучи-Махи,Инкучи-Махи,Инкучимахи,NA,65,86,541,42.35029,47.17345,Daghestan,NA,1106.42065429688,NA,not_kutan
8007,Inkhelo (Novoe Inkhelo),Инхело,NA,NA,Karata,NA,NA,NA,NA,NA,Инхело,NA,NA,NA,841,43.46797,46.61451,Daghestan,NA,13.180401802063,NA,kutan
4693,Inkhokvari,Инхоквари,Xvarshi,NA,Xvarshi,Inkhoqwari,TRUE,Инхокори,"Инхокори (Анкачвари, Ангаквари)",Инхокори,Инхоквари,289,319,238,258,42.410888,46.044877,Daghestan,NA,1394.09533691406,NA,not_kutan
337,NA,Инцатли,Chamalal,NA,NA,NA,NA,NA,NA,Инцатли,NA,NA,NA,14,NA,NA,NA,NA,NA,NA,NA,NA
1035,Iputa,Ипута,Avar,NA,Avar,NA,TRUE,NA,NA,Ината,Ипута,NA,NA,217,97,42.47852,46.96592,Daghestan,NA,1454.63317871094,NA,not_kutan
2189,Iragi,Ираги,Dargwa,муиринский,Dargwa,NA,TRUE,Ирага,"Ирага (Ирыгы, Ирагари)",Ирага,Ираги,352,353,361,843,42.11889,47.75336,Daghestan,NA,850.65673828125,NA,not_kutan
2171,Iraki,Ираки,Dargwa,муиринский,Dargwa,NA,TRUE,Ирига (Ириква),"Ирига (Ириги, Ириага, Ириква, Ириквали)",Ираки,Ираки,286,299,251,394,42.16405,47.71739,Daghestan,NA,1105.35485839844,NA,not_kutan
1503,Irgali,Иргали,Dargwa,цуд.,Dargwa,NA,TRUE,Иргали-Махи,Иргали-Махи,Иргалы-Махи,Иргали,202,226,204,206,42.41281,47.13538,Daghestan,NA,1212.36743164063,NA,not_kutan
107,Irganay,Ирганай,Avar,NA,Avar,NA,TRUE,Ирхана (Рихуни),"Ирганай (Ирханы, Иргана, Рихуни)",Ирганай,Ирганай,596,613,699,2290,42.649543,46.912048,Daghestan,NA,577.021057128906,NA,not_kutan
993,Irib,Ириб,Avar,NA,Avar,NA,TRUE,Ириб (Ири),Ириб (Ири),Ириб,Ириб,562,555,460,1108,42.1606,46.8169,Daghestan,NA,1646.95629882813,NA,not_kutan
2343,Irichi,Иричи,Dargwa,муиринский,Dargwa,NA,TRUE,Иричи,"Иричи (Ирачи, Иречи, Урача)",Иричи,Иричи,121,121,90,8,42.13548,47.79158,Daghestan,NA,882.535583496094,NA,not_kutan
297,NA,Исибки,Chamalal,NA,NA,NA,NA,NA,NA,Исибки,NA,NA,NA,10,NA,NA,NA,NA,NA,NA,NA,NA
3089,Ispik,Испик,Lezgian,NA,Lezgian,NA,TRUE,Испик (Спик),Испик (Спик),Испик,Испик,520,485,581,1274,41.61489,48.19118,Daghestan,NA,714.948913574219,NA,not_kutan
329,NA,Исси,Chamalal,NA,NA,NA,NA,NA,NA,Эсси,NA,NA,NA,27,NA,NA,NA,NA,NA,NA,NA,NA
495,NA,Италт,Tindi,NA,NA,NA,NA,NA,NA,Италт,NA,NA,NA,7,NA,NA,NA,NA,NA,NA,NA,NA
79,NA,Итля,Avar,NA,NA,NA,NA,Итли,Итля,Итля,NA,138,153,115,NA,NA,NA,NA,NA,NA,NA,NA
8208,Ikha,Иха,NA,NA,Avar,NA,NA,NA,NA,NA,Иха,NA,NA,NA,20,42.256944,45.820075,Daghestan,NA,1752.49572753906,Казбековский район,not_kutan
8208,NA,Иха,NA,NA,NA,NA,NA,NA,NA,NA,Иха,NA,NA,NA,20,NA,NA,NA,NA,NA,Цунтинский район,NA
3955,NA,Ихир,Lezgian,NA,NA,NA,NA,Ихир (Ехир),Ихир (Ехир),Ихир,NA,1231,1141,410,NA,NA,NA,NA,NA,NA,NA,NA
3959,Ikhrek,Ихрек,Rutul,NA,Rutul,NA,TRUE,Ихрек (Иги-рак),"Ихрек (Игирак, Икраг, Гирак)",Ихрек,Ихрек,1725,1669,1456,2049,41.693931,47.210005,Daghestan,NA,1792.92919921875,NA,not_kutan
2197,Itsari,Ицари,Dargwa,ицар.,Dargwa,NA,TRUE,Ицари (Уцари),"Ицари (Ицалю, Уцари)",Ицари,Ицари,535,563,639,223,41.99733,47.5833,Daghestan,NA,1436.42858886719,NA,not_kutan
4681,Itsirakh,Ицирах,Tsez,цезский,Tsez,NA,TRUE,Ицрах,Ицрахъ (Ицирахо),Ицрах,Ицирах,61,58,23,487,42.244662,45.849585,Daghestan,NA,1765.32189941406,NA,not_kutan
1587,NA,Ича,Dargwa,сев.,NA,NA,NA,NA,NA,Ича,NA,NA,NA,13,NA,NA,NA,NA,NA,NA,NA,NA
4071,Iche,Иче,Lezgian,NA,Lezgian,NA,TRUE,Ича,Ича,Ича,Иче,189,195,242,2,41.58146,47.509933,Daghestan,NA,2240.88012695312,NA,not_kutan
497,NA,Ичидары,Tindi,NA,NA,NA,NA,NA,NA,Ичидары,NA,NA,NA,8,NA,NA,NA,NA,NA,NA,NA,NA
3225,Ichin,Ичин,Lezgian,NA,Lezgian,NA,TRUE,Ичин,Ичин,Ичин,Ичин,484,481,434,333,41.68263,47.99189,Daghestan,NA,848.014709472656,NA,not_kutan
403,Ichichali,Ичичали,Avar,NA,Avar,NA,TRUE,Ичичали,Ичичали (Ичить),Ичичали,Ичичали,489,484,482,156,42.732617,46.405263,Daghestan,NA,1663.771484375,NA,not_kutan
211,Ishtiburi,Иштибури,Avar,NA,Avar,NA,TRUE,Иштибури,Иштибури,Иштибури,Иштибури,194,192,196,292,42.679149,46.702701,Daghestan,NA,1649.22534179688,NA,not_kutan
4277,Kabasida,Кабасида,Avar,NA,Avar,NA,TRUE,Кобосида,Кобосида,Кобоседа,Кабасида,28,36,22,16,42.205771,46.341334,Daghestan,NA,1751.28112792969,NA,not_kutan
301,NA,Кабилач,Chamalal,NA,NA,NA,NA,NA,NA,Кабилач,NA,NA,NA,8,NA,NA,NA,NA,NA,NA,NA,NA
3113,Kabir,Кабир,Lezgian,NA,Lezgian,NA,TRUE,Кабир,Кабир,Капир,Кабир,1932,1987,1135,1424,41.5592,48.0444,Daghestan,NA,942.850341796875,NA,not_kutan
3097,Kabir-Kazmalyar,Кабир-Казмаляр,Lezgian,NA,Lezgian,NA,TRUE,NA,NA,Кабир-Казм.,Кабир-Казмаляр,NA,NA,411,2191,41.7498,48.48848,Daghestan,NA,129.102416992188,NA,not_kutan
1327,Kavkamakhi,Кавкамахи,Dargwa,сев.,Dargwa,NA,TRUE,Кавка,Кавка-Махи (Верх. И Ниж),Кавка-Махи,Кавкамахи,489,523,426,1407,42.322184,47.30588,Daghestan,NA,1676.33056640625,NA,not_kutan
1329,NA,Када-Кунт,Dargwa,сев.,NA,NA,NA,NA,NA,Када-Кунт,NA,NA,NA,58,NA,NA,NA,NA,NA,NA,NA,NA
4273,NA,Кадан,Avar,NA,NA,NA,NA,Кудан,"Куданъ (Кудань, Кудакъ, Нанди)",Кадан,NA,25,20,2,NA,NA,NA,NA,NA,NA,NA,NA
713,Kadar,Кадар,Dargwa,кадар.,Dargwa,NA,TRUE,Кадар (Гадар),Кадар (Гадар),Кадар,Кадар,3261,3214,1530,2276,42.6242,47.2903,Daghestan,NA,1107.490234375,NA,not_kutan
1573,NA,Кадарла-Дак,Dargwa,сев.,NA,NA,NA,NA,NA,Кадарла-Дак,NA,NA,NA,11,NA,NA,NA,NA,NA,NA,NA,NA
1645,Kaddamakhi,Каддамахи,Dargwa,сирхинско-тантынский,Dargwa,NA,TRUE,Кадда-Махи,Кодда-Махи,Кадда-Махи,Каддамахи,46,46,48,94,42.045284,47.356444,Daghestan,NA,1770.93872070313,NA,not_kutan
3735,Kadirkent,Кадиркент,Dargwa,сев.,Dargwa,NA,TRUE,NA,NA,Кадар-Кент,Кадиркент,NA,NA,112,871,42.49661,47.60836,Daghestan,NA,716.831787109375,NA,not_kutan
29,NA,Казакин-Бак,Avar,NA,NA,NA,NA,NA,NA,Казакин-Бак,NA,NA,NA,27,NA,NA,NA,NA,NA,NA,NA,NA
3829,NA,Казалиево,Avar,NA,NA,NA,NA,NA,NA,Казалиево,NA,NA,NA,10,NA,NA,NA,NA,NA,NA,NA,NA
3831,NA,Казарма 894 кл,Avar,NA,NA,NA,NA,NA,NA,Казарма 894 кл,NA,NA,NA,11,NA,NA,NA,NA,NA,NA,NA,NA
3833,NA,Казарма 899 кл.,Avar,NA,NA,NA,NA,NA,NA,Казарма 899 кл.,NA,NA,NA,11,NA,NA,NA,NA,NA,NA,NA,NA
681,Kaka,Кака,Kumyk,NA,Lezgian,NA,FALSE,NA,NA,Кака,NA,NA,NA,42,NA,41.478513,47.636857,Daghestan,NA,1143.21435546875,?,not_kutan
681,NA,Кака,Kumyk,NA,NA,NA,NA,NA,NA,Кака,NA,NA,NA,42,NA,NA,NA,NA,NA,NA,?,NA
3961,Kaka,Кака,Lezgian,NA,Lezgian,NA,TRUE,Кака (Кека),"Кака (Кока, Кека, Кахка)",Кака,Кака,726,700,632,1653,41.478513,47.636857,Daghestan,NA,1143.21435546875,?,not_kutan
3961,NA,Кака,Lezgian,NA,NA,NA,NA,Кака (Кека),"Кака (Кока, Кека, Кахка)",Кака,Кака,726,700,632,1653,NA,NA,NA,NA,NA,?,NA
683,NA,Кака-Кас,Kumyk,NA,NA,NA,NA,NA,NA,Кака-Кас,NA,NA,NA,21,NA,NA,NA,NA,NA,NA,NA,NA
801,Kaka-Shura,Кака-Шура,Kumyk,NA,Kumyk,NA,TRUE,Кака-Шура,Кака-Шура,Кака-Шура,Кака-Шура,3626,3922,3090,6030,42.65194,47.38278,Daghestan,NA,743.291320800781,NA,not_kutan
3765,NA,Какакутан,Kumyk,NA,NA,NA,NA,NA,NA,Кока,NA,NA,NA,13,NA,NA,NA,NA,NA,NA,NA,NA
685,NA,Какали-Баш,Kumyk,NA,NA,NA,NA,NA,NA,Какали-Баш,NA,NA,NA,36,NA,NA,NA,NA,NA,NA,NA,NA
803,NA,Какамахи,Kumyk,NA,NA,NA,NA,NA,NA,Кака-Махи,Какамахи,NA,NA,71,1270,NA,NA,NA,NA,NA,Карабудахкентский район,NA
803,Kakamakhi,Какамахи,Kumyk,NA,Dargwa,NA,FALSE,NA,NA,Кака-Махи,Какамахи,NA,NA,71,1270,42.39507,47.30644,Daghestan,NA,1298.25524902344,Левашинский район,not_kutan
1479,NA,Какамахи,Dargwa,сев.,NA,NA,NA,Кака-Махи,Кака-Махи,Кака-Махи,Какамахи,955,933,770,2652,NA,NA,NA,NA,NA,Карабудахкентский район,NA
1479,Kakamakhi,Какамахи,Dargwa,сев.,Dargwa,NA,TRUE,Кака-Махи,Кака-Махи,Кака-Махи,Какамахи,955,933,770,2652,42.39507,47.30644,Daghestan,NA,1298.25524902344,Левашинский район,not_kutan
1331,NA,Какил Кунт,Dargwa,сев.,NA,NA,NA,NA,NA,Какил Кунт,NA,NA,NA,101,NA,NA,NA,NA,NA,NA,NA,NA
1333,Kakmakhi,Какмахи,Dargwa,сев.,Dargwa,NA,TRUE,NA,NA,Как-Махи,Какмахи,NA,NA,62,612,42.29169,47.38541,Daghestan,NA,1357.43872070313,NA,not_kutan
1997,Kala,Кала,North Azerbaijani,NA,North Azerbaijani,NA,TRUE,Хан-Мамед-кала,Хан-Мамед-Гала,Мамед-Кала,Кала,160,167,153,1751,42.1464,48.1634,Daghestan,NA,14.7475910186768,Дербентский район,not_kutan
1997,NA,Кала,North Azerbaijani,NA,NA,NA,NA,Хан-Мамед-кала,Хан-Мамед-Гала,Мамед-Кала,Кала,160,167,153,1751,NA,NA,NA,NA,NA,Рутульский район,NA
4095,Kala,Кала,Rutul,NA,North Azerbaijani,NA,FALSE,Кала,Кала (Каля),Кала,Кала,196,181,171,410,42.1464,48.1634,Daghestan,NA,14.7475910186768,Дербентский район,not_kutan
4095,NA,Кала,Rutul,NA,NA,NA,NA,Кала,Кала (Каля),Кала,Кала,196,181,171,410,NA,NA,NA,NA,NA,Рутульский район,NA
3963,Kaladzhukh,Каладжух,Lezgian,NA,Lezgian,NA,TRUE,"Каладжих (Каладжуг, Келег)","Каладжуг (Каладжух, Келет)",Каладжух,Каладжух,1335,1331,795,1758,41.366176,47.908075,Daghestan,NA,1393.78210449219,NA,not_kutan
4275,NA,Калда,Avar,NA,NA,NA,NA,Калда (Калада),Калда (Халада),Калда,NA,84,110,20,NA,NA,NA,NA,NA,NA,NA,NA
925,Kalib,Калиб,Archi,верхне-андийски,Archi,NA,TRUE,NA,NA,Кала,Калиб,NA,NA,43,0,42.07054,46.86002,Daghestan,NA,2117.40405273438,NA,not_kutan
4607,NA,Калининаул,NA,NA,NA,NA,NA,NA,NA,NA,Калининаул,NA,NA,NA,609,NA,NA,NA,NA,NA,NA,NA
4607,NA,Калининаул,NA,NA,NA,NA,NA,NA,NA,NA,Калининаул,NA,NA,NA,609,NA,NA,NA,NA,NA,NA,NA
335,NA,Калих-3,Chamalal,NA,NA,NA,NA,NA,NA,Колих,NA,NA,NA,62,NA,NA,NA,NA,NA,NA,NA,NA
2173,Kalkni,Калкни,Dargwa,муиринский,Dargwa,NA,TRUE,Калкни,"Калкни (Гкалкни, Колкни)",Калкни,Калкни,592,587,488,1316,42.17732,47.70499,Daghestan,NA,1160.2421875,NA,not_kutan
1335,NA,Калтай-Махи,Dargwa,сев.,NA,NA,NA,NA,NA,Калтай-Махи,NA,NA,NA,82,NA,NA,NA,NA,NA,NA,NA,NA
3937,Kaluk,Калук,Lezgian,NA,Lezgian,NA,TRUE,NA,NA,Калук,Калук,NA,NA,254,1231,41.47193,47.65696,Daghestan,NA,1088.41369628906,NA,not_kutan
3965,Kal'yal,Кальял,Tsakhur,NA,Tsakhur,NA,TRUE,Калiал (Кялал),"Калиал (Кялал, Келел)",Кальял,Кальял,520,526,158,399,41.684366,47.003665,Daghestan,NA,1970.560546875,NA,not_kutan
9022,NA,Камарван,Lezgian,NA,NA,NA,NA,Комарован,NA,NA,NA,1062,NA,NA,NA,NA,NA,NA,NA,NA,NA,NA
3399,NA,Камаркент,Lezgian,NA,NA,NA,NA,Камар-кент (Камара-хюр),Камар-Кент (Камар-хюр),Камар-Кент,NA,100,88,69,NA,NA,NA,NA,NA,NA,NA,NA
3565,Kamakhal,Камахал,Lak,NA,Lak,NA,TRUE,Камахал (Камукал),Камахал (Камукаль),Камакал,Камахал,284,313,246,53,42.227415,46.999859,Daghestan,NA,1680.13818359375,NA,not_kutan
3561,Kamasha,Камаша,Lak,NA,Lak,NA,TRUE,Гамаши (Камаши),"Гамаши (Гамаша, Камаши, Камашлю)",Камаша,Камаша,243,247,230,25,42.22886,47.14153,Daghestan,NA,1525.84362792969,NA,not_kutan
4263,Kamilukh,Камилух,Avar,NA,Avar,NA,TRUE,Камелюк (Камилуг),"Камелюкъ (Камелюхъ, Камилугъ)",Камилух,Камилух,352,346,207,904,41.90911,46.63101,Daghestan,NA,2004.74877929687,NA,not_kutan
569,NA,Камилю,Andi,верхне-андийски,NA,NA,NA,NA,NA,Камилю,NA,NA,NA,8,NA,NA,NA,NA,NA,NA,NA,NA
1343,Kamkadamakhi,Камкадамахи,Dargwa,сев.,Dargwa,NA,TRUE,NA,NA,Ком-Гада-Кунд,Камкадамахи,NA,NA,114,288,42.255826,47.308527,Daghestan,NA,1643.22509765625,NA,not_kutan
1393,NA,Камха-Махи В.,Dargwa,цуд.,NA,NA,NA,NA,Верх.-Камха-Махи,Камха-Махи В.,NA,NA,61,47,NA,NA,NA,NA,NA,NA,NA,NA
3739,NA,Камыш,Dargwa,сев.,NA,NA,NA,NA,NA,Камыш,NA,NA,NA,56,NA,NA,NA,NA,NA,NA,NA,NA
1483,Kanasiragi,Канасираги,Dargwa,сев.,Dargwa,NA,TRUE,Кана-Сираги,Кана-Сираги (Сирагант),Канасарати,Канасираги,837,791,703,733,42.252582,47.649095,Daghestan,NA,1113.08264160156,NA,not_kutan
1697,NA,Канда-Махи,Dargwa,цуд.,NA,NA,NA,NA,NA,Канда-Махи,NA,NA,NA,16,NA,NA,NA,NA,NA,NA,NA,NA
3503,Kani,Кани,Lak,NA,Lak,NA,TRUE,Кани,Кани (Канилю),Кани,Кани,784,814,526,289,42.13937,47.18846,Daghestan,NA,1740.2744140625,NA,not_kutan
3867,NA,Канибур,Kumyk,NA,NA,NA,NA,NA,NA,Канибур,NA,NA,NA,16,NA,NA,NA,NA,NA,NA,NA,NA
907,NA,Канят-Булак,Kumyk,NA,NA,NA,NA,NA,NA,Канят-Булак,NA,NA,NA,5,NA,NA,NA,NA,NA,NA,NA,NA
2205,Kapkaykent,Капкайкент,Kumyk,NA,Kumyk,NA,TRUE,Гапкай-кент,Гапкай-Кент,Капкай-Кент,Капкайкент,1411,1413,888,1020,42.248157,47.798984,Daghestan,NA,371.838745117187,NA,not_kutan
3661,NA,Каптан,Kumyk,NA,NA,NA,NA,NA,NA,Каптан,NA,NA,NA,27,NA,NA,NA,NA,NA,NA,NA,NA
3511,Kara,Кара,Lak,NA,Lak,NA,TRUE,Кара (Чар),"Кара (Чар, Чаралю)",Кара,Кара,1200,1226,819,532,42.28724,47.17093,Daghestan,NA,1481.73327636719,NA,not_kutan
841,NA,Кара-Тюбе Вер.,Kumyk,NA,NA,NA,NA,NA,NA,Кара-Тюбе Вер.,NA,NA,NA,6,NA,NA,NA,NA,NA,NA,NA,NA
3757,Karabudakhkent,Карабудахкент,Kumyk,NA,Kumyk,NA,TRUE,Кара-будахкент,Карабудах-Кент,Карабудахкент,Карабудахкент,4023,3709,3048,15361,42.7067,47.5603,Daghestan,NA,207.161926269531,NA,not_kutan
2099,NA,Карадаглы,North Azerbaijani,NA,NA,NA,NA,Карадаглы,Карадаглы,Карадагли,Карадаглы,131,132,144,788,NA,NA,NA,NA,NA,NA,NA
1041,Karadakh,Карадах,Avar,NA,Avar,NA,TRUE,NA,NA,Карадах,Карадах,NA,NA,9,392,42.471023,46.863724,Daghestan,NA,706.875061035156,NA,not_kutan
4279,NA,Карадла,Avar,NA,NA,NA,NA,Карада,Карада,Корода,Карадла,38,48,23,33,NA,NA,NA,NA,NA,NA,NA
3973,NA,Каракюре,Lezgian,NA,NA,NA,NA,Кара-Кюра,Кара-Кюра (Кала Кюра),Каракюра,Каракюре,3073,2844,2368,1209,NA,NA,NA,NA,NA,NA,NA
3919,NA,Караман 2,Kumyk,NA,NA,NA,NA,NA,NA,Караман № 3,NA,NA,NA,7,NA,NA,NA,NA,NA,NA,NA,NA
719,Karamakhi,Карамахи,Dargwa,кадар.,Dargwa,NA,TRUE,NA,NA,Кар,Карамахи,NA,NA,810,4489,42.618786,47.256653,Daghestan,NA,1071.24621582031,NA,not_kutan
3769,NA,Каранай Аул,Kumyk,NA,NA,NA,NA,Янгы-Букнак (Дазу-юрт),"Янги-Буйнак (Кичи-Буйнак, Малый Буйнак)",Каранай-Аул,Каранайаул,450,538,459,1693,NA,NA,NA,NA,NA,NA,NA
953,Karanub,Карануб,Avar,NA,Avar,NA,TRUE,Карануб (Карану),Карануб,Каранаб,Карануб,194,197,145,161,42.12262,46.81777,Daghestan,NA,1978.08190917969,NA,not_kutan
405,Karata,Карата,Karata,карат.,Karata,NA,TRUE,Карата,Карати (Кирай),Карата,Карата,960,948,1252,4154,42.5942,46.3419,Daghestan,NA,1463.62890625,NA,not_kutan
8213,Karatyube,Каратюбе,NA,NA,Tsez,NA,NA,NA,NA,NA,Каратюбе,NA,NA,NA,286,43.66738,46.82335,Daghestan,NA,-6.52905511856079,NA,kutan
8212,Karaozek (Karauzek),Караузек,NA,NA,Bezhta,NA,NA,NA,NA,NA,Караузек,NA,NA,NA,535,43.68663,46.66615,Daghestan,NA,-4,NA,kutan
2209,Karatsan,Карацан,Dargwa,кайт.,Dargwa,NA,TRUE,Карацан,Карацан (Корацан),Карацан,Карацан,725,689,754,1162,42.0886,47.8683,Daghestan,NA,514.275756835938,NA,not_kutan
159,NA,Карачитль,Avar,NA,NA,NA,NA,NA,NA,Карачитль,NA,NA,NA,5,NA,NA,NA,NA,NA,NA,NA,NA
